store_id,store_name,genre,rate,review_cnt,store_url,address,latitude,longitude,business_hours,reserve,dinner_budget,lunch_budget,opened
17001392,いきいき亭 近江町店,海鮮丼、寿司、海鮮,3.53,935,https://tabelog.com/ishikawa/A1701/A170101/17001392/,石川県/金沢市/青草町/88/近江町いちば館/1F,36.57187855715991,136.65639307556083,月・水・木・金・土・日/07:00 - 15:00/火/定休日 ■ 営業時間/※ネタが無くなり次第終了/■ 定休日/海が時化の場合は休むこともあります。,予約不可,"￥2,000～￥2,999","￥3,000～￥3,999",2009年4月
17000911,もりもり寿し 近江町店,回転寿司、寿司,3.49,1358,https://tabelog.com/ishikawa/A1701/A170101/17000911/,石川県/金沢市/青草町/88/近江町いちば館/1F,36.57172753635457,136.6561911943977,08:00 - 17:00,予約不可,"￥2,000～￥2,999","￥2,000～￥2,999",
17004576,近江町・海鮮市場料理 市の蔵,居酒屋、海鮮、かに,3.48,451,https://tabelog.com/ishikawa/A1701/A170101/17004576/,石川県/金沢市/青草町/88/近江町いちば館/2F,36.57165963635461,136.65621639439698,11:00 - 22:00 ■ 定休日/元日,予約可,"￥3,000～￥3,999","￥1,000～￥1,999",2009年
17004296,旬彩和食 口福,海鮮、かに、ちゃんこ鍋,3.48,387,https://tabelog.com/ishikawa/A1701/A170101/17004296/,石川県/金沢市/青草町/88/近江町いちば館/２Ｆ,36.57156303635459,136.65593139439622,月・水・木・金・土・日・祝日・祝前日・祝後日/11:00 - 15:00/17:00 - 22:00/L.O. 料理21:30/火/定休日 ■ 営業時間/15：00～17：00は仕込中/[ランチ]11：00～15：00/■ 定休日/火曜(祝日の場合は営業),予約可,"￥3,000～￥3,999","￥1,000～￥1,999",
17000046,近江町食堂,海鮮、海鮮丼、居酒屋,3.47,384,https://tabelog.com/ishikawa/A1701/A170101/17000046/,石川県/金沢市/青草町/1/近江町市場,36.57111929716021,136.6558113155536,月・火・水・木・金・土/10:30 - 15:00/L.O. 14:30/17:00 - 22:00/L.O. 21:30/日/10:30 - 15:00/L.O. 14:30/17:00 - 20:00/L.O. 19:30 ■ 営業時間/連休最終日/10：30～15：00（LO14：30）/17：00～20：00（LO19：30）/予約電話受付時間/月～金（祝日除く）10:30～14:30/15時~17時は留守電になります。/■ 定休日/年始のみ,予約可,"￥4,000～￥4,999","￥1,000～￥1,999",1930年3月16日
17000047,刺身屋,海鮮、海鮮丼、居酒屋,3.47,368,https://tabelog.com/ishikawa/A1701/A170101/17000047/,石川県/金沢市/青草町/15-1,36.57115233635484,136.6559051943921,月・火・水・木・金/10:30 - 21:00/L.O. 20:30/土・日・祝日/09:30 - 21:00/L.O. 20:30 ■ 定休日/1/1〜1/4,予約可,"￥3,000～￥3,999","￥2,000～￥2,999",1991年
17005471,近江町海鮮丼家ひら井 いちば館店,海鮮、海鮮丼、日本料理,3.46,267,https://tabelog.com/ishikawa/A1701/A170101/17005471/,石川県/金沢市/青草町/88/近江町いちば館/2F,36.57149558715999,136.6558866955573,月・火・木・金/11:00 - 17:00/水/11:00 - 15:00/土・日・祝日/10:30 - 17:00 ■ 定休日/元日,予約可,-,"￥2,000～￥2,999",
17004297,川木商店,惣菜・デリ、うなぎ、どじょう,3.44,185,https://tabelog.com/ishikawa/A1701/A170101/17004297/,石川県/金沢市/青草町/88/近江町いちば館/１Ｆ,36.571289957160126,136.65589378555526,09:00 - 15:30 ■ 営業時間/蒲焼は9:30～/■ 定休日/無休（お盆・年始休業、臨時休業有）※うなぎのみ水曜休み,予約不可,-,"￥1,000～￥1,999",
17009851,忠村水産 小売部,海鮮,3.42,111,https://tabelog.com/ishikawa/A1701/A170101/17009851/,石川県/金沢市/青草町/15,36.57116579716026,136.65610375555386,月・火・水・木・金・土・日/08:00 - 17:30/祝日/定休日,予約不可,-,"￥1,000～￥1,999",
17006997,潮屋 近江町いちば店,海鮮,3.42,110,https://tabelog.com/ishikawa/A1701/A170101/17006997/,石川県/金沢市/青草町/88/近江町いちば館/1F,36.57167264715996,136.65611845555895,09:00 - 17:00 ■ 定休日/不定休,予約可,"￥2,000～￥2,999","￥1,000～￥1,999",2011年4月23日
17009254,フルーツ坂野,ジューススタンド、フルーツパーラー,3.41,152,https://tabelog.com/ishikawa/A1701/A170101/17009254/,石川県/金沢市/青草町/88/近江町いちば館/1F,36.57168946715999,136.65628976555902,09:00 - 17:00,予約不可,-,～￥999,
17010602,すゞめ 近江町市場店,大福、和菓子,3.41,94,https://tabelog.com/ishikawa/A1701/A170101/17010602/,石川県/金沢市/青草町/88/近江町いちば館/1F,36.57155739715999,136.65600111555787,月・火・木・金・土/10:00 - 16:00/水・日/定休日,予約不可,-,-,
17011248,百萬商店,ビアバー,3.41,76,https://tabelog.com/ishikawa/A1701/A170101/17011248/,石川県/金沢市/青草町/88/金沢近江町市場,36.57167183635471,136.6565135943969,月・火・木・金・土・日・祝日/09:00 - 16:00/水/定休日,予約不可,-,"￥1,000～￥1,999",
17009347,鮮彩えにし,海鮮、寿司、海鮮丼,3.38,128,https://tabelog.com/ishikawa/A1701/A170101/17009347/,石川県/金沢市/青草町/88/近江町いちば館/2F,36.57156303635459,136.65593139439622,月・火・水・木・金/11:00 - 14:00/17:00 - 22:00/土・日/10:00 - 14:00/17:00 - 22:00 ■ 定休日/不定休,予約可,"￥3,000～￥3,999","￥3,000～￥3,999",2014年9月26日
17009791,みなみ,日本料理、その他,3.37,52,https://tabelog.com/ishikawa/A1701/A170101/17009791/,石川県/金沢市/青草町/88/近江町いちば館/1F,36.57159788716,136.65610486555823,月・火・木・金・土・日/08:00 - 17:00/水/定休日,予約可,-,～￥999,
17004583,近江屋 伝兵衛,寿司、海鮮、日本料理,3.36,120,https://tabelog.com/ishikawa/A1701/A170101/17004583/,石川県/金沢市/青草町/88/近江町いちば館/２Ｆ,36.571568487160015,136.6561207555579,月・火・水・金/11:00 - 15:00/L.O. 14:30/17:00 - 20:00/L.O. 19:30/土/11:00 - 20:00/L.O. 19:30/日/11:00 - 17:00/L.O. 16:30/木/定休日 ■ 営業時間/※材料切れの場合は上記営業時間より早く閉まる事もございます。/ご理解とご協力の程お願い致します。/■ 定休日/木曜 (祝日の場合は営業),予約可,"￥3,000～￥3,999","￥2,000～￥2,999",
17001113,仙桃,中華料理,3.34,72,https://tabelog.com/ishikawa/A1701/A170101/17001113/,石川県/金沢市/青草町/88/近江町いちば館/2F,36.571554536354654,136.656109194396,月・水・木・金・土・日/11:00 - 15:00/L.O. 14:30/17:00 - 22:30/L.O. 22:00/火/定休日,予約可,"￥3,000～￥3,999","￥1,000～￥1,999",2009年4月
17011216,能登牛たくみ,牛料理,3.3,87,https://tabelog.com/ishikawa/A1701/A170101/17011216/,石川県/金沢市/青草町/88/近江いちば館,36.57148731903678,136.65587664830656,金・土・日/09:00 - 16:00/月・火・水・木/定休日,予約不可,-,"￥1,000～￥1,999",2017年10月16日
17006533,カレーのチャンピオン 近江町店,カレー、とんかつ、コロッケ,3.27,306,https://tabelog.com/ishikawa/A1701/A170101/17006533/,石川県/金沢市/青草町/88番地/近江町いちば館/地下1階,36.57156336715996,136.65593035555798,月・火・水・木・金・土・日・祝日/11:00 - 16:00/L.O. 15:30,予約不可,～￥999,～￥999,
17004637,二六,豆腐料理、ソフトクリーム,3.22,40,https://tabelog.com/ishikawa/A1701/A170101/17004637/,石川県/金沢市/青草町/88/近江町いちば館,36.571556007159984,136.65599985555787,月・火・木・金・土/10:00 - 16:00/水・日/定休日,,-,～￥999,
17005175,みやむら,惣菜・デリ、うなぎ、どじょう,3.22,30,https://tabelog.com/ishikawa/A1701/A170101/17005175/,石川県/金沢市/青草町/88/近江町いちば館/1F,36.57186893635453,136.65640009439898,月・火・水・木・金・土/09:00 - 17:30/日/定休日,予約可,-,～￥999,
17001556,近江町市場　杉本水産 近江町店,惣菜・デリ、海鮮,3.21,31,https://tabelog.com/ishikawa/A1701/A170101/17001556/,石川県/金沢市/青草町/88/近江町いちば館/内,36.5712992671601,136.6558400955554,月・火・木・金・土/09:00 - 16:00/水/09:00 - 13:00/日・祝日/定休日,予約不可,-,～￥999,
17011164,清商店,海鮮,3.19,23,https://tabelog.com/ishikawa/A1701/A170101/17011164/,石川県/金沢市/青草町/88,36.57116578716026,136.65607718555387,09:00 - 17:00,予約不可,-,～￥999,
17013653,金沢おでん 地酒地魚 新近江町商店,居酒屋,3.19,22,https://tabelog.com/ishikawa/A1701/A170101/17013653/,石川県/金沢市/青草町/88/近江町いちば館/2F,36.571563457159954,136.655930405558,月・火・金・土・日・祝日・祝前日・祝後日/11:00 - 15:00/L.O. 14:30/17:00 - 21:00/L.O. 20:30/水・木/定休日 ■営業時間/11:00 - 15:00/17:00 - 21:00/（時期により営業時間の変更する場合があります）/■定休日/不定休,予約可,"￥3,000～￥3,999","￥2,000～￥2,999",2022年11月1日
17009253,新力水産,うなぎ、どじょう,3.18,47,https://tabelog.com/ishikawa/A1701/A170101/17009253/,石川県/金沢市/青草町/88/近江町いちば館/1F,36.57159813635463,136.65610529439644,09:00 - 17:00,予約不可,-,～￥999,
17014006,PETRA BAKE&COFFEE,カフェ、洋菓子,3.17,19,https://tabelog.com/ishikawa/A1701/A170101/17014006/,石川県/金沢市/青草町/88/近江町いちば館,36.57183507219656,136.65649802300982,08:00 - 16:00 ■定休日/年末年始,予約不可,-,"￥1,000～￥1,999",2023年5月21日
17014718,近江町ラーメン,ラーメン,3.12,21,https://tabelog.com/ishikawa/A1701/A170101/17014718/,石川県/金沢市/青草町/88/近江町いちば館 1F,36.57155403715996,136.6559223955579,月・木・金・土・日/08:00 - 10:00/L.O. 09:30/11:00 - 14:30/L.O. 14:00/火・水/定休日 【定休日】/火・水曜日(祝日の場合は翌日定休日),,-,"￥1,000～￥1,999",2024年7月19日
17004621,近江町こだわり玉子 だし巻屋,日本料理,3.11,18,https://tabelog.com/ishikawa/A1701/A170101/17004621/,石川県/金沢市/青草町/88/近江町いちば館/Ｂ１Ｆ,36.57159813635463,136.65610529439644,10:00 - 20:00,予約不可,-,"￥1,000～￥1,999",
17009360,みなと屋,ラーメン,3.1,31,https://tabelog.com/ishikawa/A1701/A170101/17009360/,石川県/金沢市/青草町/88/近江町いちば館/B1F,36.571492977159984,136.65588487555732,11:00 - 16:00,予約不可,-,～￥999,2014年12月17日
17004295,のざきの焼魚,うなぎ、海鮮、串焼き,3.09,50,https://tabelog.com/ishikawa/A1701/A170101/17004295/,石川県/金沢市/青草町/88/近江町いちば館/1F,36.57128994716014,136.6559546455552,月・火・木・金・土・日/11:00 - 14:30/水/定休日 ■ 営業時間/※一日限定50食、焼魚は9:00～17:00,予約不可,-,～￥999,
17012225,あげ丸天かさい,揚げ物,3.08,24,https://tabelog.com/ishikawa/A1701/A170101/17012225/,石川県/金沢市/青草町/88/近江町いちば館/1F,36.57155683635461,136.6560007943961,,予約不可,-,-,
17005933,麺丼や,うどん、かつ丼,3.08,19,https://tabelog.com/ishikawa/A1701/A170101/17005933/,石川県/金沢市/青草町/88,36.571556357160006,136.65606400555782,■ 営業時間/11：00～21：00/水曜日11：00～16：00/■ 定休日/水曜日,,"￥1,000～￥1,999","￥1,000～￥1,999",
17008784,鳥由,惣菜・デリ,3.08,7,https://tabelog.com/ishikawa/A1701/A170101/17008784/,石川県/金沢市/青草町/88,36.57149577715999,136.65588626555734,月・火・水・木・金・土/09:00 - 17:00/日・祝日/定休日,,-,-,
17007667,高川物産,その他,3.07,17,https://tabelog.com/ishikawa/A1701/A170101/17007667/,石川県/金沢市/青草町/88/いちば館,36.57159813635463,136.65610529439644,月・火・木・金・土・日/09:00 - 17:00/水/定休日 ■ 定休日/水曜日※水曜日が祝祭日の場合は営業,予約可,-,-,
17007108,手押し棒鮨 舟楽 近江町いちば館店,棒寿司、寿司,3.06,10,https://tabelog.com/ishikawa/A1701/A170101/17007108/,石川県/金沢市/青草町/88/近江町いちば館/1F,36.571423837160005,136.65593519555614,09:00 - 17:00 ■ 定休日/近江町いちば館休館日に準ずる,,-,-,
17013389,近江町横丁,居酒屋、海鮮、おでん,3.06,9,https://tabelog.com/ishikawa/A1701/A170101/17013389/,石川県/金沢市/青草町/88/近江町いちば館/1F,36.57177872092037,136.65586222647983,,,-,-,
17008089,ミスタードーナツ 金沢武蔵ショップ,カフェ、ドーナツ,3.05,31,https://tabelog.com/ishikawa/A1701/A170101/17008089/,石川県/金沢市/青草町/88,36.57156178715989,136.6557147155581,月・火・水・木・日/07:00 - 21:00/金・土/07:00 - 22:00,予約可,-,～￥999,
17004634,良縁堂　茶楽,その他,3.05,9,https://tabelog.com/ishikawa/A1701/A170101/17004634/,石川県/金沢市/青草町/88/近江町いちば館,36.571840907469486,136.6567435044785,10:00 - 20:00,,-,-,
17011445,ヤマカ水産 近江町店,その他,3.05,9,https://tabelog.com/ishikawa/A1701/A170101/17011445/,石川県/金沢市/青草町/88,36.57149753715999,136.65588645555732,,予約不可,-,-,
17005450,市安商店,ジューススタンド,3.05,4,https://tabelog.com/ishikawa/A1701/A170101/17005450/,石川県/金沢市/青草町/88番地,36.57151863635465,136.65603589439573,月・火・水・木・金・土/09:00 - 18:00/日/10:00 - 17:00/祝日/定休日 ■営業時間/9：00～18：00/（日曜10：00～17：00）,,-,-,
17008887,ヤマカ水産 新通り店,その他、寿司,3.04,6,https://tabelog.com/ishikawa/A1701/A170101/17008887/,石川県/金沢市/青草町/88/いちば館 1F,36.571563457159954,136.65593099555798,月・火・木・金・土・日/08:30 - 17:00/水/定休日,,-,-,
17015500,炭火串焼き・鶏料理 八千屋 近江町市場店,居酒屋、焼き鳥、おでん,3.04,3,https://tabelog.com/ishikawa/A1701/A170101/17015500/,石川県/金沢市/青草町/88/近江町いちば館 2F,36.57155397936903,136.65592219701014,月・火・水・木・金・土・日・祝日・祝前日・祝後日/10:30 - 22:30/L.O. 22:00,,-,-,2025年11月10日
17014907,THE TEA SHOP CHANOMI 近江町市場2号店,カフェ,3.04,3,https://tabelog.com/ishikawa/A1701/A170101/17014907/,石川県/金沢市/青草町/88/近江町いちば館 1F,36.57164881829181,136.65571854767387,,,-,-,2024年11月2日
17014490,宇奈とと 近江町市場店,うなぎ,3.03,9,https://tabelog.com/ishikawa/A1701/A170101/17014490/,石川県/金沢市/青草町/88/近江町市場,36.571731059204495,136.65586345657945,,,-,-,2024年4月2日
17011865,能登牛炙り海鮮丼,丼、海鮮,3.03,4,https://tabelog.com/ishikawa/A1701/A170101/17011865/,石川県/金沢市/青草町/88/近江町いちば館/2F,36.57154731462814,136.65599163599452,,,-,-,
17008888,海道物産 海藻ライフ店,その他,3.03,2,https://tabelog.com/ishikawa/A1701/A170101/17008888/,石川県/金沢市/青草町/88/ダイヤモンドL3,36.57148773715998,136.6558768955569,09:00 - 16:00,,-,-,
17011330,牧果実店,フルーツパーラー,3.02,2,https://tabelog.com/ishikawa/A1701/A170101/17011330/,石川県/金沢市/青草町/88,36.57157107716011,136.65640264555773,08:00 - 18:00,,-,-,
17014371,寿美田今川焼,たい焼き・大判焼き,3.02,1,https://tabelog.com/ishikawa/A1701/A170101/17014371/,石川県/金沢市/青草町/88,36.57180316240828,136.65672214343564,月・火・水・金・土・日/10:00 - 17:00/木/定休日,予約不可,-,-,
17013212,炙りのど黒といしる飯,海鮮丼,3.02,1,https://tabelog.com/ishikawa/A1701/A170101/17013212/,石川県/金沢市/青草町/88/近江町いちば館/2F,36.57154759237621,136.65599163598174,,,-,-,2021年9月16日
17009942,北形青果 近江町本店,その他,3.01,3,https://tabelog.com/ishikawa/A1701/A170101/17009942/,石川県/金沢市/青草町/88/近江町いちば館/1F,36.57159813635463,136.65610529439644,月・火・水・木・金・土/08:00 - 18:00/日/08:00 - 16:00/祝日/定休日,,-,-,
17011728,蒲富士食品株式会社 金沢近江町市場直営店,その他,3.01,2,https://tabelog.com/ishikawa/A1701/A170101/17011728/,石川県/金沢市/青草町/15,36.57118235177296,136.65588332845968,月・火・水・木・金・土/08:30 - 17:30/日・祝日/定休日,,-,～￥999,
17015129,金沢どら焼き堂,和菓子、スイーツ,3.0,6,https://tabelog.com/ishikawa/A1701/A170101/17015129/,石川県/金沢市/青草町/88/近江町いちば館 1階 新通り,36.57155403715996,136.6559223955579,,,-,-,2025年3月22日
17014592,徳一商店,その他,3.0,2,https://tabelog.com/ishikawa/A1701/A170101/17014592/,石川県/金沢市/青草町/88/近江町いちば館/1F,36.57157692678524,136.65608585985922,,,-,-,
17010973,フルーツきたむら,その他,3.0,1,https://tabelog.com/ishikawa/A1701/A170101/17010973/,石川県/金沢市/青草町/88,36.57137179715994,136.65547333555637,,,-,-,
17012885,北川食品 近江町店,その他,0.0,2,https://tabelog.com/ishikawa/A1701/A170101/17012885/,石川県/金沢市/青草町/88,36.57149686715999,136.65588621555736,,,-,-,
17013776,天狗中田 青草町店,その他,0.0,1,https://tabelog.com/ishikawa/A1701/A170101/17013776/,石川県/金沢市/青草町/88/近江町いちば館,36.57156255715996,136.65593209555797,月・火・水・木・金・土/08:30 - 16:00/日・祝日/定休日 ■ 定休日/お盆、お正月,,-,-,
17012653,中屋食品 近江町市場店,その他,0.0,1,https://tabelog.com/ishikawa/A1701/A170101/17012653/,石川県/金沢市/青草町/15,36.57117530716023,136.65601008555402,月・火・水・木・金・土/08:30 - 17:00/日/定休日,,-,-,1950年4月1日
17013386,マツモトキヨシ 近江町店,その他,0.0,1,https://tabelog.com/ishikawa/A1701/A170101/17013386/,石川県/金沢市/青草町/88/近江町いちば館,36.57154783715999,136.6559916955578,09:00 - 20:00,,-,-,
17005186,みなせん 近江町店,お好み焼き,0.0, - ,https://tabelog.com/ishikawa/A1701/A170101/17005186/,石川県/金沢市/青草町/88/近江町いちば館/1F,36.57447894708368,136.65290156875773,10:00 - 20:00,,-,-,
17004631,だし茶漬　だいあん,日本料理,0.0, - ,https://tabelog.com/ishikawa/A1701/A170101/17004631/,石川県/金沢市/青草町/88/近江町いちば館,36.571840907469486,136.6567435044785,11:00 - 20:00,,-,-,
17015135,なんぼ商店,売店,0.0, - ,https://tabelog.com/ishikawa/A1701/A170101/17015135/,石川県/金沢市/青草町/5,36.57113491716018,136.65575984555375,月・火・水・木・金・土/08:30 - 18:00/祝日/10:00 - 17:00/日/定休日,予約不可,-,～￥999,
17006803,御菓子司　水本,和菓子,3.05,7,https://tabelog.com/ishikawa/A1701/A170101/17006803/,石川県/金沢市/暁町/14-3,36.56253313636586,136.67335049429278,火・水・木・金・土/08:00 - 19:00/日・祝日/08:00 - 17:00/月/定休日,,-,-,
17012292,おしゃべりcafe めてみみ,喫茶店、カフェ,3.01,2,https://tabelog.com/ishikawa/A1701/A170101/17012292/,石川県/金沢市/暁町/11-27,36.56143103717231,136.6745013654426,水・木・金/10:00 - 17:00/土・日/09:00 - 17:00/月・火/定休日,予約可,-,～￥999,2020年7月1日
17012786,すし捨 賢坂辻店,寿司,4.69,1,https://tabelog.com/ishikawa/A1701/A170101/17012786/,石川県/金沢市/暁町/19-1,36.563151727170165,136.67118847546232,月・水・木・金・土・日/17:00 - 00:00/火/定休日,予約可,-,-,
17003943,幌里,居酒屋,4.51, - ,https://tabelog.com/ishikawa/A1701/A170101/17003943/,石川県/金沢市/暁町/3-1,36.564228777169625,136.6716601654729,,,-,-,
17011166,片折,日本料理,4.32,416,https://tabelog.com/ishikawa/A1701/A170101/17011166/,石川県/金沢市/並木町/3-36,36.56957103716507,136.6679997455294,月・火・水・木・金/11:30 - 14:00/17:00 - 20:00/土/11:30 - 14:00/日/定休日 ■ 営業時間/（ただし、松茸の時期は18:00〜）/■ 定休日/不定休,完全予約制,"￥40,000～￥49,999","￥40,000～￥49,999",2018年5月16日
17010732,レスピラシオン,スペイン料理、イノベーティブ、創作料理,4.3,469,https://tabelog.com/ishikawa/A1701/A170101/17010732/,石川県/金沢市/博労町/67,36.570759036355966,136.65866879438616,■ 営業時間/12:00 一斉スタート(11:30分入店可)/18:00 一斉スタート(17:30分入店可)/一斉スタートとなりますので、15分ほどお時間に余裕を持ってご来店ください/コーススタート時間に遅れた場合は、コース途中からのご対応になりますのでご了承くださいませ。/■ 定休日/月曜日中心に月６回,完全予約制,"￥20,000～￥29,999","￥20,000～￥29,999",2017年7月4日
17012300,マキノンチ,フレンチ,4.28,141,https://tabelog.com/ishikawa/A1701/A170101/17012300/,石川県/金沢市/山の上町/25-18,36.57668113635704,136.67383039443536,月・火・水・金・土/17:30 - 21:30/日/11:30 - 16:00/木/定休日 【ランチ】/日曜日 ：11:30ドアオープン 12:00 start/【ディナー】/月〜水、金、土曜日 ： 17:30ドアオープン 18:00 start,完全予約制,"￥20,000～￥29,999","￥20,000～￥29,999",2020年7月7日
17010524,小松 弥助,寿司,4.27,689,https://tabelog.com/ishikawa/A1701/A170101/17010524/,石川県/金沢市/本町/2-17-21/金沢茶屋別館 1F,36.57649148715491,136.649911205612,■ 営業時間/11:00～、13:00～、15:00～の完全予約/■ 定休日/水曜日・木曜日,完全予約制,-,"￥10,000～￥14,999",2017年3月14日
17012585,蛤坂 まえかわ,焼き鳥,4.23,132,https://tabelog.com/ishikawa/A1701/A170101/17012585/,石川県/金沢市/野町/1-1-9,36.55757678716704,136.65027161542065,■ 営業時間/（1部）17:00〜/（2部）20:15～/■ 定休日/日曜日、不定休,完全予約制,"￥10,000～￥14,999",-,2020年12月10日
17000107,乙女寿司,寿司,4.15,576,https://tabelog.com/ishikawa/A1701/A170101/17000107/,石川県/金沢市/木倉町/4-10,36.56144451716504,136.65170132545873,月・火・木・金・土/12:00 - 14:00/17:00 - 22:00/水・日・祝日/定休日 ■ 営業時間/最終入店 19:30/※予約が必須,予約可,"￥20,000～￥29,999","￥20,000～￥29,999",
17015162,木佐貫,日本料理,4.11,73,https://tabelog.com/ishikawa/A1701/A170101/17015162/,石川県/金沢市/常盤町/15-3,36.56925733716587,136.66989059552492,,完全予約制,"￥50,000～￥59,999",-,2025年4月18日
17009914,Installation Table ENSO L'asymetrie du calme,フレンチ、イノベーティブ,4.01,286,https://tabelog.com/ishikawa/A1701/A170101/17009914/,石川県/金沢市/池田町4番丁33,36.557753377167685,136.6526681754208,火/11:30 - 12:00/18:00 - 19:00/水・木・金・土・日/11:30 - 12:30/18:00 - 19:30/月/定休日 ■ 定休日/不定休,予約可,"￥20,000～￥29,999","￥20,000～￥29,999",2016年1月13日
17009514,天ぷら 小泉,天ぷら,0.0,173,https://tabelog.com/ishikawa/A1701/A170101/17009514/,石川県/金沢市/池田町4-34,36.55776915716772,136.65276922542083,■ 営業時間/12:00～（予約制）/18:00～20:00ラストイン（予約制）/■ 定休日/不定休,完全予約制,"￥15,000～￥19,999","￥10,000～￥14,999",
17010062,鮨 木場谷,寿司,0.0,272,https://tabelog.com/ishikawa/A1701/A170101/17010062/,石川県/金沢市/彦三町/1-8-26/1F,36.57272393635576,136.66191069440376,月・火・水・木・金・土/17:00 - 21:00/日/定休日 ■ 定休日/(加えて不定休あり),完全予約制,"￥30,000～￥39,999",-,2016年4月5日
17001082,ヤハタすしべん 赤土店,寿司、うどん、かつ丼,3.27,26,https://tabelog.com/ishikawa/A1701/A170101/17001082/,石川県/金沢市/赤土町/ニ104-1,36.58283387713311,136.59409229571514,■ 営業時間/（未調査）,予約不可,-,-,
17008085,いちばん星,喫茶店,4.69, - ,https://tabelog.com/ishikawa/A1701/A170101/17008085/,石川県/金沢市/赤土町/ト100-2/金城温泉 2F,36.58033263713576,136.59733139568726,月・水・木・金・土・日/13:00 - 23:00/火/定休日,,-,-,
17015443,cafe en.,カフェ,3.02,1,https://tabelog.com/ishikawa/A1701/A170101/17015443/,石川県/金沢市/朝霧台/2-19-2/Monte朝霧台c号,36.53438393719629,136.69586429515442,月・火・木・金・土・日/11:00 - 17:00/水/定休日,,-,-,2025年9月13日
17011156,メルカート,カフェ,4.69,2,https://tabelog.com/ishikawa/A1701/A170101/17011156/,石川県/金沢市/朝霧台/1-76,36.534698636390495,136.6952119939963,11:30 - 15:00/L.O. 14:30/18:00 - 22:30/L.O. 22:00 ■ 営業時間/ランチ 11:30～15:00（L.O.14:30)/ディナー 18:00～22:30（L.O.22:00）/■ 定休日/不定休,,-,"￥1,000～￥1,999",
17010076,焼肉グリル＆バー ビコロ,焼肉,4.51, - ,https://tabelog.com/ishikawa/A1701/A170101/17010076/,石川県/金沢市/朝霧台/1-76,36.53474093639048,136.69520789399672,火・水・木・金・土・日/11:30 - 15:00/L.O. 14:30/18:00 - 22:30/L.O. 22:00/月/定休日 ■ 定休日/その他臨時休業、臨時営業有り,,-,-,2016年3月24日
17002595,龍苑,飲茶・点心、中華料理,3.4,95,https://tabelog.com/ishikawa/A1701/A170101/17002595/,石川県/金沢市/浅野本町/ロ143-1,36.58359587715477,136.66360817567414,月・火・水・木・金・土/11:00 - 14:30/17:30 - 22:00/日・祝日/定休日,予約可,"￥1,000～￥1,999",～￥999,
17013762,焼肉 アダン,焼肉、ホルモン,3.16,11,https://tabelog.com/ishikawa/A1701/A170101/17013762/,石川県/金沢市/浅野本町/1-10-15,36.58213033634991,136.6623093944985,月・火・水・木・金・土・日・祝日・祝前日・祝後日/17:00 - 23:00/L.O. 料理22:00 ドリンク22:30,予約可,"￥4,000～￥4,999",-,2022年12月20日
17010224,旬食彩酒 とのまち,日本料理、かに,3.09,17,https://tabelog.com/ishikawa/A1701/A170101/17010224/,石川県/金沢市/浅野本町/ロ-114,36.58316717715502,136.66356753566984,,予約可,"￥5,000～￥5,999",-,
17010806,焼肉 koba 浅野本町店,焼肉、ホルモン、居酒屋,3.04,9,https://tabelog.com/ishikawa/A1701/A170101/17010806/,石川県/金沢市/浅野本町/2-19-20/金沢クインビル 1F,36.5843091363473,136.6584577945232,"月・水・木・金・土・日/17:00 - 00:00/L.O. 23:00/火/定休日 ■ 営業時間/[ランチ]/能登牛ランチコース5,500円/能登牛焼きすきランチ3,500円/8名様以上のご予約で営業いたします。",予約可,"￥3,000～￥3,999",-,2017年9月11日
17013397,焼肉ホルモン 牛に恋したブタ野郎,焼肉、ホルモン,3.04,5,https://tabelog.com/ishikawa/A1701/A170101/17013397/,石川県/金沢市/浅野本町/2-19-20/金沢クインビル 1F,36.5843091363473,136.6584577945232,月・火・水・金・土・日/17:30 - 00:00/L.O. 23:00/木/定休日 ■ 営業時間/17:30～00:00頃(L.O.11:00頃),予約可,"￥4,000～￥4,999",-,2022年4月26日
17014990,岩本屋 金沢浅野本町店,ラーメン,3.01,8,https://tabelog.com/ishikawa/A1701/A170101/17014990/,石川県/金沢市/浅野本町/ロ171-1,36.58429473715435,136.66369049568115,10:00 - 00:30/L.O. 料理00:05 不定休,予約不可,-,"￥1,000～￥1,999",2024年12月19日
17014800,AZ-EATS,ソフトクリーム、かき氷,3.0,1,https://tabelog.com/ishikawa/A1701/A170101/17014800/,石川県/金沢市/浅野本町/2-1-29,36.581900448565584,136.66026524883873,,,-,-,
17014074,士朗商店,ラーメン,3.41,55,https://tabelog.com/ishikawa/A1701/A170101/17014074/,石川県/金沢市/旭町/2-8-45,36.55424193637399,136.68232369420275,,予約不可,～￥999,-,2023年7月7日
17000002,マスタム,中華料理,3.18,22,https://tabelog.com/ishikawa/A1701/A170101/17000002/,石川県/金沢市/旭町/3-19-13,36.54989903718294,136.68489489531885,月・木・金・土・日/12:00 - 13:30/17:30 - 20:00/火・水/定休日,予約可,～￥999,～￥999,
17001872,かみたに,焼肉,3.14,17,https://tabelog.com/ishikawa/A1701/A170101/17001872/,石川県/金沢市/旭町/2-17-1,36.55301900718061,136.68381326535112,月・火・水・金・土・日/17:00 - 23:00/木/定休日,予約可,-,-,
17005168,御菓子処 美福 本店,和菓子,3.11,12,https://tabelog.com/ishikawa/A1701/A170101/17005168/,石川県/金沢市/旭町/3-6-10,36.55469090717886,136.68161363536956,08:00 - 19:00,予約可,-,-,
17000511,レ・サヴール,フレンチ,3.08,15,https://tabelog.com/ishikawa/A1701/A170101/17000511/,石川県/金沢市/旭町/3-17-4/シャトー・シャンボール 1F,36.55264227718059,136.6829788553479,水・木・金・土・日/11:30 - 13:30/18:00 - 20:30/月・火/定休日,完全予約制,"￥8,000～￥9,999","￥8,000～￥9,999",2000年
17007038,ホープハウス,カフェ、ヨーロッパ料理,3.04,6,https://tabelog.com/ishikawa/A1701/A170101/17007038/,石川県/金沢市/旭町/2-8-38,36.55356998326083,136.6827838497242,水・木・金/12:00 - 18:00/L.O. 17:30/月・火・土・日・祝日/定休日,,-,-,
17007765,楽らく,肉料理,3.02,3,https://tabelog.com/ishikawa/A1701/A170101/17007765/,石川県/金沢市/旭町/2-7-28,36.55518133637319,136.6816668942127,18:00 - 01:00/L.O. 00:00 ■ 定休日/不定休,,"￥2,000～￥2,999",-,
17005878,安兵衛寿司,寿司,3.01,2,https://tabelog.com/ishikawa/A1701/A170101/17005878/,石川県/金沢市/旭町/2-9-6,36.55493758717917,136.683101055371,,,-,-,
17005985,サニー,喫茶店,3.0,1,https://tabelog.com/ishikawa/A1701/A170101/17005985/,石川県/金沢市/旭町/1-1-43,36.55059394995297,136.68485351486072,,,-,-,
17014018,まるひろ屋,その他,0.0, - ,https://tabelog.com/ishikawa/A1701/A170101/17014018/,石川県/金沢市/旭町/3-17-8,36.55229110319034,136.68324783462708,■定休日/水曜日、日曜日、祝日,,-,-,
17004538,葡萄苑,喫茶店,0.0, - ,https://tabelog.com/ishikawa/A1701/A170101/17004538/,石川県/金沢市/旭町/1-21-14,36.54719323637979,136.68647709412863,,,-,-,
17014529,鮨 逢,寿司,3.19,10,https://tabelog.com/ishikawa/A1701/A170101/17014529/,石川県/金沢市/油車/64/アトラスビル 1F,36.55669751943151,136.6562978498307,火・水・木・金・土・日/11:30 - 14:00/17:30 - 21:30/月/定休日,予約可,-,"￥3,000～￥3,999",2024年5月15日
17014398,テーラー喜多,その他,4.69, - ,https://tabelog.com/ishikawa/A1701/A170101/17014398/,石川県/金沢市/油車/51-4,36.557051226981535,136.6562777306481,火・水・木・金・土/10:00 - 18:00/月・日/定休日,,-,-,
17002777,南膳,居酒屋,3.03,3,https://tabelog.com/ishikawa/A1701/A170101/17002777/,石川県/金沢市/荒屋町/イ-1-1,36.61474656714171,136.68475660597397,,予約可,-,-,
17002724,麺や　福座,ラーメン、つけ麺,3.66,427,https://tabelog.com/ishikawa/A1701/A170101/17002724/,石川県/金沢市/有松/4-1-1,36.541137297174,136.63934625526227,火・水・木・金・土・日/11:30 - 14:25/18:00 - 20:55/月/定休日 ■ 定休日/火曜日不定休(店頭・Instagramに掲示あり),予約不可,"￥1,000～￥1,999","￥1,000～￥1,999",2009年2月3日
17011536,ごえちゃんらーめん,ラーメン,3.33,52,https://tabelog.com/ishikawa/A1701/A170101/17011536/,石川県/金沢市/有松/2-4-6/有松ハイム 1F,36.54283232328668,136.63967903506713,月・火・水・金・土/11:00 - 14:00/木・日/定休日,予約不可,-,～￥999,2018年
17000284,しちりん家 有松店,焼肉,3.25,31,https://tabelog.com/ishikawa/A1701/A170101/17000284/,石川県/金沢市/有松/5-10-53,36.53804081717498,136.6362368352332,水・木・金/17:00 - 21:45/L.O. 21:00/土・日・祝日/11:30 - 14:30/L.O. 14:00/16:30 - 21:45/L.O. 21:00/月・火/定休日 ■ 定休日/月曜日、火曜日(定休日が祝日の場合は営業),予約可,"￥4,000～￥4,999",-,
17001440,アリスファームキッチン,パン,3.24,35,https://tabelog.com/ishikawa/A1702/A170203/17001440/,石川県/金沢市/有松/5-10-24,36.53849716717482,136.63661962523753,月・水・木・金・土・日/07:30 - 17:00/火/定休日,予約不可,-,-,1992年
17004340,ノバール,喫茶店,3.19,30,https://tabelog.com/ishikawa/A1701/A170101/17004340/,石川県/金沢市/有松/2-4-30,36.54241273636805,136.64003439411292,■ 定休日/水曜日,予約不可,-,-,
17013614,を山茶寮,カフェ,3.19,21,https://tabelog.com/ishikawa/A1702/A170203/17013614/,石川県/金沢市/有松/4-13-8,36.53843359717465,136.63598315523734,月/09:30 - 22:00/火・木・金・土・日/08:00 - 22:00/水/定休日,予約可,-,"￥1,000～￥1,999",2022年9月9日
17007250,お好み焼 古川 金沢有松店,お好み焼き、もんじゃ焼き,3.09,26,https://tabelog.com/ishikawa/A1701/A170101/17007250/,石川県/金沢市/有松/3-3-23,36.540280497174685,136.6397798652533,月・火・木・金/11:00 - 15:00/L.O. 14:30/17:00 - 23:00/L.O. 22:00/土・日・祝日/11:00 - 23:00/L.O. 22:00/水/定休日,予約可,"￥1,000～￥1,999","￥1,000～￥1,999",
17009171,トムハナの木,ベーグル,3.07,11,https://tabelog.com/ishikawa/A1701/A170101/17009171/,石川県/金沢市/有松/2-10-19,36.54282074717214,136.63683752528104,水・木・金・土/11:00 - 17:00/月・火・日/定休日 ■ 営業時間/(完売後閉店)/■ 定休日/不定休,予約可,-,～￥999,2014年6月10日
17005873,スシロー 金沢有松店,回転寿司,3.05,37,https://tabelog.com/ishikawa/A1701/A170101/17005873/,石川県/金沢市/有松/2-4-33,36.54244954717321,136.63947207527545,月・火・水・木・金/11:00 - 23:00/L.O. 22:30/土・日・祝日/10:30 - 23:00/L.O. 22:30,予約不可,"￥2,000～￥2,999","￥1,000～￥1,999",
17014372,三代目 利久,日本料理,3.04,2,https://tabelog.com/ishikawa/A1701/A170101/17014372/,石川県/金沢市/有松/4-13-37,36.53892026717447,136.63640308524197,火・水・木・金・土/11:30 - 14:00/L.O. 13:00/18:00 - 22:00/L.O. 21:00/日/11:30 - 14:00/L.O. 13:00/月/定休日,予約可,"￥15,000～￥19,999","￥10,000～￥14,999",2022年2月7日
17008261,丸亀製麺 金沢有松店,うどん,3.03,21,https://tabelog.com/ishikawa/A1701/A170101/17008261/,石川県/金沢市/有松/4-1-1,36.54150490717377,136.63933758526602,11:00 - 22:00/L.O. 21:30,,～￥999,～￥999,2013年4月25日
17013373,スターバックスコーヒー 金沢有松店,カフェ,3.03,18,https://tabelog.com/ishikawa/A1701/A170101/17013373/,石川県/金沢市/有松/3-3-36,36.54128207717408,136.63986107526338,07:00 - 22:00,予約不可,-,-,2022年4月20日
17010187,ゆず庵 金沢有松店,しゃぶしゃぶ,3.03,15,https://tabelog.com/ishikawa/A1701/A170101/17010187/,石川県/金沢市/有松/4-3-8,36.54026831717429,136.6385170252541,月・火・水・木・金・土・日・祝日/11:00 - 23:00/L.O. 料理21:30 年末年始の営業時間は公式ホームページをご確認ください。,予約可,"￥3,000～￥3,999","￥1,000～￥1,999",
17001768,津軽,居酒屋,3.03,5,https://tabelog.com/ishikawa/A1701/A170101/17001768/,石川県/金沢市/有松/2-4-6,36.54287454095924,136.63967708884087,,,-,-,
17013578,CoCo壱番屋  金沢有松店,カレー,3.02,9,https://tabelog.com/ishikawa/A1701/A170101/17013578/,石川県/金沢市/有松/2-5-32,36.54169006717385,136.63997866526742,11:00 - 23:30 ■ 営業時間/※悪天候、店舗の事情によりやむなく営業時間終了前に閉店する場合もございます。/■定休日/無休,予約可,"￥1,000～￥1,999","￥1,000～￥1,999",2022年8月15日
17007319,じんずし 有松店,寿司,3.02,4,https://tabelog.com/ishikawa/A1702/A170203/17007319/,石川県/金沢市/有松/4丁目10-1,36.53991343636875,136.63728479408957,月・火・木・金・土・日/10:00 - 19:30/水/定休日 ■ 定休日/水曜日 ※祝祭日は営業,予約可,～￥999,～￥999,
17003696,今伴フード＆ドリンク,居酒屋,3.02,3,https://tabelog.com/ishikawa/A1702/A170203/17003696/,石川県/金沢市/有松/2-15-3,36.54418513717079,136.63532791529587,■ 営業時間/18時から/■定休日/火曜日,予約可,-,-,
17010056,アイレット キャンティーン,カフェ,3.02,3,https://tabelog.com/ishikawa/A1701/A170101/17010056/,石川県/金沢市/有松/5-10-27,36.53874741717473,136.63686875523985,月・木・金・土・日/11:00 - 16:00/L.O. 15:00/火・水/定休日 ■ 定休日/一部月曜日も休み,予約可,-,～￥999,
17007276,甘味処　和味 有松店,カフェ、甘味処,3.02,2,https://tabelog.com/ishikawa/A1702/A170203/17007276/,石川県/金沢市/有松/5-8-22,36.539853960245,136.6378264571787,月・火・水・木・金・土/10:00 - 17:00/L.O. 16:30/日・祝日/10:00 - 16:30/L.O. 16:00 ■ 定休日/元日、1月2日,予約不可,-,-,2011年9月7日
17014620,TA28,ダイニングバー、カフェ,3.02,1,https://tabelog.com/ishikawa/A1701/A170101/17014620/,石川県/金沢市/有松/2-3-30/1Ｆ,36.5432766671729,136.64015162528332,ランチタイム11:00-14:00/バータイム21:00-last/定休日 日曜,,-,-,2023年12月1日
17006882,マクドナルド 金沢有松店,ハンバーガー,3.01,14,https://tabelog.com/ishikawa/A1702/A170203/17006882/,石川県/金沢市/有松/4-10-10,36.53930277717433,136.6367155752456,07:00 - 00:00,予約不可,～￥999,～￥999,
17007521,加賀麩不室屋　 有松店,和菓子,3.01,6,https://tabelog.com/ishikawa/A1702/A170203/17007521/,石川県/金沢市/有松/5-8-22,36.53983033636902,136.6379826940883,■営業時間/[平日]9:00～19:00/[日・祝]9:00～18:00/■ 定休日/不定休,,-,-,
17007541,中田屋 有松店,和菓子,3.01,4,https://tabelog.com/ishikawa/A1702/A170203/17007541/,石川県/金沢市/有松/5丁目8番22号,36.5398572971744,136.63803421525026,月・火・水・木・金・土/09:00 - 19:00/日・祝日/09:00 - 18:00 ■ 営業時間/[月～土]/9:00～19:00/[日・祝]/9:00～18:00/※営業日時変更の場合は公式サイトにて告知/■ 定休日/元日、1月2日,,-,-,2011年9月
17014226,cafe fuku+,ケーキ、洋菓子、カフェ,3.0,3,https://tabelog.com/ishikawa/A1702/A170203/17014226/,石川県/金沢市/有松/5-9-12/グラン・ヴェルジェ有松 1F,36.53901185717465,136.63714124524236,10:00 - 19:00 ■ 定休日/不定休,予約可,-,-,2023年10月14日
17013608,CHICKEN PRINCE,鳥料理、ソフトクリーム,0.0,3,https://tabelog.com/ishikawa/A1701/A170101/17013608/,石川県/金沢市/有松/2-4-6/有松ハイツ 1F,36.54280648717305,136.6396840452789,,,-,-,
17008657,佃の佃煮 有松店,惣菜・デリ,0.0,2,https://tabelog.com/ishikawa/A1701/A170101/17008657/,石川県/金沢市/有松/5-8-22,36.5398307771744,136.63798280525003,月・火・水・木・金・土/09:00 - 19:00/日・祝日/09:00 - 18:00,,-,-,2011年9月7日
17007277,有松　三軒家,和菓子、日本料理,0.0, - ,https://tabelog.com/ishikawa/A1702/A170203/17007277/,石川県/金沢市/有松/5-8-22,36.5398580271744,136.63803489525029,月・火・水・木・金・土/09:00 - 19:00/日・祝日/09:00 - 18:00,,-,-,2011年9月7日
17012808,スーパーマーケット バロー 有松店,コンビニ・スーパー,0.0, - ,https://tabelog.com/ishikawa/A1701/A170101/17012808/,石川県/金沢市/有松/2-6-30,36.54185159717318,136.63817468527031,,,-,-,
17001208,名物げそ天丼と自家製うどん お多福,うどん、天丼、揚げ物,3.36,77,https://tabelog.com/ishikawa/A1701/A170101/17001208/,石川県/金沢市/粟崎町/ト135-14,36.6232504971174,136.6253690061015,月・木・金・土・日/11:00 - 14:30/L.O. 料理14:00/17:00 - 20:30/L.O. 料理19:50/火/11:00 - 14:30/L.O. 料理14:00/水/定休日,予約不可,"￥1,000～￥1,999","￥1,000～￥1,999",
17001127,シャンテリー,ハンバーガー,3.22,42,https://tabelog.com/ishikawa/A1701/A170101/17001127/,石川県/金沢市/粟崎町/カ18-12,36.6231952171173,136.62493041610125,11:30 - 19:00,予約可,～￥999,～￥999,
17001874,焼肉 山ちゃん,焼肉,3.15,15,https://tabelog.com/ishikawa/A1701/A170101/17001874/,石川県/金沢市/粟崎町/1-88-2,36.62403468711685,136.62523398610952,■ 営業時間/17：00～/■ 定休日/月曜日,予約可,"￥2,000～￥2,999",-,
17011821,パン屋 りあん,パン,3.06,5,https://tabelog.com/ishikawa/A1701/A170101/17011821/,石川県/金沢市/粟崎町/ヘ77-1,36.62237374711812,136.62586901609225,■ 営業時間/[木・金]/7:00～12:00/[土]/7:00～夕方頃(売り切れまで)/■定休日/月曜日、火曜日、水曜日、日曜日,,-,-,2019年7月20日
17008651,農業生産法人有限会社かわに,スイーツ、和菓子、洋菓子,3.03,6,https://tabelog.com/ishikawa/A1701/A170102/17008651/,石川県/金沢市/粟崎町/5-32-2,36.623550336310565,136.62139159494552,月・火・水・木・金/08:00 - 17:00/土・日・祝日/定休日,,-,-,
17002419,大政寿し,寿司,3.02,5,https://tabelog.com/ishikawa/A1701/A170102/17002419/,石川県/金沢市/粟崎町/1-88-3,36.62398210711685,136.62512071610905,月・火・木・金・土・日/11:30 - 13:30/17:00 - 21:00/水/定休日,,"￥5,000～￥5,999",-,
17002675,ベル・エポック,ケーキ,3.02,3,https://tabelog.com/ishikawa/A1701/A170102/17002675/,石川県/金沢市/粟崎町/1-54-1,36.62762402711596,136.6295603761427,10:00 - 19:00 ■ 定休日/不定休,,-,-,
17002120,あすなろ,日本料理,3.02,1,https://tabelog.com/ishikawa/A1701/A170102/17002120/,石川県/金沢市/粟崎町/1-82-1,36.62486961711663,136.6261778661173,,,-,-,
17002570,チュー 粟崎店,ラーメン,3.01,4,https://tabelog.com/ishikawa/A1701/A170102/17002570/,石川県/金沢市/粟崎町/2-405-2,36.627028867115534,136.6270401761385,11:15 - 15:00,,-,～￥999,
17001875,なかなか,焼肉,3.01,3,https://tabelog.com/ishikawa/A1701/A170101/17001875/,石川県/金沢市/粟崎町/1-91-1,36.62371133631156,136.62480749494475,,,-,-,
17002300,はなずし,寿司,0.0,1,https://tabelog.com/ishikawa/A1701/A170101/17002300/,石川県/金沢市/粟崎町/2-405-1,36.62709916711548,136.62700732613922,■定休日/月曜,予約可,-,～￥999,
17003728,小林食堂,レストラン,0.0, - ,https://tabelog.com/ishikawa/A1701/A170102/17003728/,石川県/金沢市/粟崎町/3-129,36.62763467645986,136.6257048800532,,,-,-,
17003386,円,居酒屋,0.0, - ,https://tabelog.com/ishikawa/A1701/A170102/17003386/,石川県/金沢市/粟崎町/3-84-4,36.62574350711555,136.62454559612726,,,-,-,
17014332,酒満菜 まきの,居酒屋,3.19,10,https://tabelog.com/ishikawa/A1701/A170101/17014332/,石川県/金沢市/池田町一番丁/18-2,36.55722885716868,136.65472990541403,17:30 - 23:00,予約可,-,-,2023年12月22日
17013784,台所 スゴロク,日本料理、串焼き,3.07,6,https://tabelog.com/ishikawa/A1701/A170101/17013784/,石川県/金沢市/池田町二番丁/19-2,36.55794823636287,136.65479159425948,月・火・水・金・土/18:00 - 00:00/日/16:00 - 22:00/木/定休日,予約可,"￥3,000～￥3,999",-,2023年1月6日
17004391,まさみ,レストラン、日本料理,3.05,6,https://tabelog.com/ishikawa/A1701/A170101/17004391/,石川県/金沢市/池田町二番丁/19-3,36.55792727716823,136.6546988454211,,予約可,"￥6,000～￥7,999",-,
17014443,ヤキトリ オモウツボ,焼き鳥、居酒屋,3.13,11,https://tabelog.com/ishikawa/A1701/A170101/17014443/,石川県/金沢市/池田町三番丁/43,36.55834920716752,136.65331853542637,,予約可,-,-,2024年3月12日
17001252,パパロク 片町店,居酒屋、肉料理,3.0,1,https://tabelog.com/ishikawa/A1701/A170101/17001252/,石川県/金沢市/池田町三番丁/11,36.55822704152107,136.6542062864462,火・水・木・日/17:30 - 23:30/金・土・祝前日/17:30 - 01:00/月/定休日,,-,-,
17014511,かなざわにじのま,その他,4.69,1,https://tabelog.com/ishikawa/A1701/A170101/17014511/,石川県/金沢市/池田町三番丁/21-2,36.55878535716754,136.6542408054301,月・木・日/12:00 - 20:00/金・土/12:00 - 23:00/火・水/定休日,,-,-,
17002303,みちわ寿し,寿司,4.51, - ,https://tabelog.com/ishikawa/A1701/A170101/17002303/,石川県/金沢市/池田町三番丁/2,36.55734233636292,136.65376959425407,,,-,-,
17000049,若葉,おでん,3.57,84,https://tabelog.com/ishikawa/A1701/A170101/17000049/,石川県/金沢市/石引/2-7-11,36.55399157717624,136.67199594536925,月・水・木・金・土・日/17:00 - 22:00/火/定休日,予約不可,"￥2,000～￥2,999",-,
17000048,千取寿司 本店,寿司,3.52,144,https://tabelog.com/ishikawa/A1701/A170101/17000048/,石川県/金沢市/石引/1-17-3,36.55377246717679,136.67327664536612,月・火・水・金・土・日/11:00 - 23:00/木/定休日,予約可,"￥15,000～￥19,999",-,1953年
17003723,春甚,日本料理、レストラン,3.23,28,https://tabelog.com/ishikawa/A1701/A170101/17003723/,石川県/金沢市/石引/2-9-2,36.553337347176864,136.67265738536216,11:00 - 23:00,予約可,-,"￥1,000～￥1,999",
17013128,まんぷく食堂 悠有,食堂、居酒屋,3.19,22,https://tabelog.com/ishikawa/A1701/A170101/17013128/,石川県/金沢市/石引/1-9-13,36.55528129717548,136.67219479538213,月・火・水・木・金・土/11:00 - 15:00/L.O. 14:30/17:30 - 22:00/L.O. 21:30/日・祝日/定休日 ■ 定休日/第2・4土曜日,予約可,-,～￥999,
17012610,Pistrina EighSky,パン,3.17,12,https://tabelog.com/ishikawa/A1701/A170101/17012610/,石川県/金沢市/石引/2-6-1,36.55545128717474,136.67019943538523,月・火・水・木・金・土/07:00 - 18:00/日・祝日/定休日,予約不可,-,-,2021年1月28日
17001043,北極,洋食,3.14,28,https://tabelog.com/ishikawa/A1701/A170101/17001043/,石川県/金沢市/石引/3-5-23,36.55706673636792,136.66882939424073,月・火・木・金/11:00 - 14:00/17:00 - 20:00/土・日・祝日/11:00 - 14:30/17:00 - 20:00/水/定休日,,"￥1,000～￥1,999","￥1,000～￥1,999",1948年
17004076,ジョーハウス 石引店,カレー、アジア・エスニック,3.13,32,https://tabelog.com/ishikawa/A1701/A170101/17004076/,石川県/金沢市/石引/2-7-10,36.5540596363708,136.67189389420824,月・火・水・木・金・土/11:30 - 14:00/17:30 - 22:00/日/定休日,,-,"￥1,000～￥1,999",1972年
17009500,珉来 大学病院前,中華料理,3.13,23,https://tabelog.com/ishikawa/A1701/A170101/17009500/,石川県/金沢市/石引/1-10-6,36.55543782717551,136.6726222553834,,予約可,-,～￥999,
17013093,Meat ぴあ 賑,ステーキ、牛料理,3.13,12,https://tabelog.com/ishikawa/A1701/A170101/17013093/,石川県/金沢市/石引/2-6-4,36.55526134717493,136.67039883538317,11:30 - 14:30/L.O. 14:00/17:00 - 21:00/L.O. 20:30,予約可,"￥2,000～￥2,999","￥1,000～￥1,999",2021年9月26日
17005227,SAKE SHOP 福光屋 金沢本店,その他,3.12,73,https://tabelog.com/ishikawa/A1701/A170101/17005227/,石川県/金沢市/石引/2-8-3,36.55371339717652,136.6723491353662,月・火・水・木・金/09:00 - 19:00/土・日・祝日/10:00 - 19:00 ■ 定休日/不定休,予約可,-,-,
17010444,月の砂漠,カフェ、居酒屋,3.11,11,https://tabelog.com/ishikawa/A1701/A170101/17010444/,石川県/金沢市/石引/1-5-26/パークビューハイツ 104,36.55592463636944,136.6713953942274,月・火・水・木・金・土/11:00 - 15:00/17:00 - 00:00/L.O. 23:00/日/定休日 ■ 定休日/日曜日(翌月曜日が祝日の場合は営業、翌月曜日が休み),予約不可,-,～￥999,
17001540,高砂屋,和菓子,3.09,17,https://tabelog.com/ishikawa/A1701/A170101/17001540/,石川県/金沢市/石引/2-7-4,36.55448329795003,136.67140641923493,■営業時間/[月～土]8:30～19:00/■定休日/無休,,-,-,
17003751,石橋屋,お好み焼き、オムライス、食堂,3.07,14,https://tabelog.com/ishikawa/A1701/A170101/17003751/,石川県/金沢市/石引/1-14-17,36.55445317717646,136.67361984537277,月・火・水・木・金・土/08:00 - 14:00/日/定休日 ■ 定休日/第2・第4土曜,,-,～￥999,
17011891,石引Veeda,居酒屋、ワインバー、バル,3.06,9,https://tabelog.com/ishikawa/A1701/A170101/17011891/,石川県/金沢市/石引/2-7-2/オガビル 1F,36.55458065717563,136.67126625537568,月・火・水・木・金・土・祝前日/17:00 - 00:00/日/定休日 ■ 定休日/不定休,予約可,"￥3,000～￥3,999",-,
17006294,別所文玉堂,和菓子、洋菓子、パン,3.06,8,https://tabelog.com/ishikawa/A1701/A170101/17006294/,石川県/金沢市/石引/2-5-2,36.55563314717456,136.66998811538724,月・火・水・木・金・土/07:30 - 19:30/日/定休日,,-,-,
17012865,橘珈琲店,カフェ,3.05,5,https://tabelog.com/ishikawa/A1701/A170101/17012865/,石川県/金沢市/石引/4-5-1/Allier（東山ビル） 1F,36.55713454717306,136.66829876540356,月・木・金・土・日/12:00 - 19:00/火・水/定休日,,-,-,2021年3月12日
17015253,食堂sasanqua,食堂、ケーキ,3.05,4,https://tabelog.com/ishikawa/A1701/A170101/17015253/,石川県/金沢市/石引/2-6-11,36.554860147175376,136.6710371953787,火・水・木・金・土/11:30 - 18:00/月・日/定休日 ランチ 11:30〜14:30/カフェ 13:30〜18:00/ケーキ・ドリンクのテイクアウト 11:30〜18:00/不定休あり/※営業日についてはInstagramをご確認ください。,予約可,-,-,2025年6月2日
17014839,竹珠,居酒屋,3.05,3,https://tabelog.com/ishikawa/A1701/A170101/17014839/,石川県/金沢市/石引/1-5-26,36.55581081280238,136.67135526454564,月・火・木・金・土・日/11:30 - 14:00/17:00 - 22:00/水/定休日 年内は無休,予約可,"￥4,000～￥4,999",-,2024年9月25日
17003235,ドンブリックエイト,レストラン,3.04,7,https://tabelog.com/ishikawa/A1701/A170101/17003235/,石川県/金沢市/石引/2-7-1,36.55464859717558,136.6712440253764,11:00 - 18:30,,"￥1,000～￥1,999","￥1,000～￥1,999",
17013257,かふぇどるーふ,カフェ,3.04,2,https://tabelog.com/ishikawa/A1701/A170101/17013257/,石川県/金沢市/石引/1-15-29/2F,36.55376561985037,136.6727182877717,金・土・日/11:00 - 15:00/月・火・水・木/定休日,,-,-,
17002964,リリー,喫茶店,3.03,6,https://tabelog.com/ishikawa/A1701/A170101/17002964/,石川県/金沢市/石引/1-14-10,36.55465165108479,136.6735709539413,月・火・木・金/10:00 - 17:00/水・土・日・祝日/定休日,予約可,-,～￥999,
17004839,木村屋ベーカリー,パン、サンドイッチ,3.03,5,https://tabelog.com/ishikawa/A1701/A170101/17004839/,石川県/金沢市/石引/2-1-1,36.55657170717361,136.66891262539744,月・火・水・木・金/07:00 - 19:30/日・祝日/07:00 - 19:00/土/定休日,,-,-,
17008662,なかむら生菓子店,和菓子,3.03,4,https://tabelog.com/ishikawa/A1701/A170101/17008662/,石川県/金沢市/石引/2-12-23,36.55271723637202,136.67307819419383,月・火・水・木・金/09:30 - 17:00/土・日/定休日,,-,-,
17011343,加賀豆腐 大鋸本店,その他,3.03,4,https://tabelog.com/ishikawa/A1701/A170101/17011343/,石川県/金沢市/石引/2-9-4/大鋸ビル 1F,36.553234657176986,136.672837885361,月・火・水・木・金・土/07:00 - 18:00/日/定休日,予約可,-,-,1830年
17013072,33sunny,カフェ,3.02,1,https://tabelog.com/ishikawa/A1701/A170101/17013072/,石川県/金沢市/石引/2-8-7,36.55335037900129,136.6722897313706,,予約不可,-,"￥1,000～￥1,999",2021年9月19日
17013803,チョムスキー コーヒー＆ライブラリー,カフェ,3.02,1,https://tabelog.com/ishikawa/A1701/A170101/17013803/,石川県/金沢市/石引/2-19-12/NoAMビル 1F,36.55459563637012,136.67085579421436,月・火・水・金・土/13:00 - 17:00/木・日・祝日/定休日,,-,-,
17013522,旬菜酒場 だるま,居酒屋,3.02,1,https://tabelog.com/ishikawa/A1701/A170101/17013522/,石川県/金沢市/石引/1-5-26/パークビューハイツ 1F,36.55590883636943,136.6713028942273,月・火・木・金・土・日/17:00 - 23:00/水/定休日,予約可,-,-,
17002523,やきとり 大吉 小立野店,焼き鳥,3.01,6,https://tabelog.com/ishikawa/A1701/A170101/17002523/,石川県/金沢市/石引/2-6-3,36.55538577717483,136.67033889538448,■ 営業時間/17:00〜/■定休日/水曜日,予約可,-,-,
17001909,大吉,焼肉,3.01,4,https://tabelog.com/ishikawa/A1701/A170101/17001909/,石川県/金沢市/石引/1-11-1,36.55489010717566,136.6719847153783,,,-,-,
17010864,山長亭,食堂,3.01,2,https://tabelog.com/ishikawa/A1701/A170101/17010864/,石川県/金沢市/石引/4-1-11,36.55994861717029,136.66521477543415,11:30 - 13:00,,-,-,
17001910,かわだ,焼肉,3.01,1,https://tabelog.com/ishikawa/A1701/A170101/17001910/,石川県/金沢市/石引/1-13-4,36.55439095717606,136.67225162537312,,,-,-,
17007747,芝寿し 小立野店,寿司,3.0,3,https://tabelog.com/ishikawa/A1701/A170101/17007747/,石川県/金沢市/石引/2-7-6,36.554341636370495,136.67152219421132,09:00 - 15:00 ■ 定休日/正月一日のみ,,-,-,
17010465,ストロベリーコーンズ 金沢小立野店,ピザ、パスタ、スイーツ,3.0,2,https://tabelog.com/ishikawa/A1701/A170101/17010465/,石川県/金沢市/石引/1-16-42,36.55351589717684,136.67292552536378,11:00 - 22:00,予約可,-,-,
17013149,石引パブリック カフェ,カフェ,3.0,1,https://tabelog.com/ishikawa/A1701/A170101/17013149/,石川県/金沢市/石引/2-8-2/山下ビル 1F,36.55376311093945,136.67219277597533,火・水・木・金・土/13:00 - 19:00/月・日/定休日,,-,～￥999,
17003629,りきちゃん,お好み焼き、食堂,0.0,2,https://tabelog.com/ishikawa/A1701/A170101/17003629/,石川県/金沢市/石引/4-5-5,36.55687093636798,136.6686275942389,,,-,-,
17007271,ナポリの窯 金沢小立野店,ピザ、パスタ、ジェラート・アイスクリーム,0.0,1,https://tabelog.com/ishikawa/A1701/A170101/17007271/,石川県/金沢市/石引/1-16-42,36.55351552717684,136.67292539536376,11:00 - 22:00,予約可,"￥1,000～￥1,999","￥1,000～￥1,999",
17015645,Cafe&Kitchen HARE,カフェ、レストラン,0.0,1,https://tabelog.com/ishikawa/A1701/A170101/17015645/,石川県/金沢市/石引/1-5-26,36.555899837174806,136.671293895389,火・水・木・金・土/12:00 - 15:00/17:00 - 22:00/月・日/定休日,,-,-,2025年12月10日
17015505,金澤茶屋 凛,たい焼き・大判焼き,0.0,1,https://tabelog.com/ishikawa/A1701/A170101/17015505/,石川県/金沢市/石引/1-12-13,36.55441793717596,136.67195659537356,,,-,-,
17008661,平野屋,和菓子,0.0,1,https://tabelog.com/ishikawa/A1701/A170101/17008661/,石川県/金沢市/石引/1-13-31,36.55427963637076,136.67224389421017,月・火・水・木・金・土/08:00 - 18:30/日/定休日 ■ 定休日/加えて不定休あり,,-,-,
17003507,スープバーワルニ,レストラン,0.0, - ,https://tabelog.com/ishikawa/A1701/A170101/17003507/,石川県/金沢市/石引/1-16-16,36.55302683221307,136.6741181944136,,,-,-,
17012701,珈琲豆専門店 みづほ,カフェ,0.0, - ,https://tabelog.com/ishikawa/A1701/A170101/17012701/,石川県/金沢市/石引/2-10-8,36.55251271177095,136.67348911477413,月・火・水・木・金・土/10:00 - 18:30/日/定休日,,-,-,
17009160,イーティーシーリンク,カフェ、バー、その他,0.0, - ,https://tabelog.com/ishikawa/A1701/A170101/17009160/,石川県/金沢市/石引/2-9-2/小坂ビル B1F,36.55334079717687,136.6726930153622,月・水・木・金・土・日/11:00 - 00:00/火/定休日 ■ 定休日/第1水曜日・第3水曜日・第5水曜日,,-,-,2014年4月12日
17014488,天ぷら酒場 兎一,天ぷら,0.0, - ,https://tabelog.com/ishikawa/A1701/A170101/17014488/,石川県/金沢市/石引/1-5-26/パークビューハイツ 2F,36.55581092765463,136.67136984504893,,,-,-,
17006912,ニャンカフェ ブックス,カフェ,0.0, - ,https://tabelog.com/ishikawa/A1701/A170101/17006912/,石川県/金沢市/石引/2-23-14,36.55463283636942,136.66874429421622,水・木・金・土・日/12:00 - 19:00/月・火/定休日 臨時休業はSNSで告知,,-,-,
17014672,めし処 のとや,弁当,0.0, - ,https://tabelog.com/ishikawa/A1701/A170101/17014672/,石川県/金沢市/石引/1-11-12,36.554693701121046,136.6724444719395,,,-,-,
17009606,アシルワード,インドカレー、弁当,0.0, - ,https://tabelog.com/ishikawa/A1701/A170101/17009606/,石川県/金沢市/石引/1-8-2,36.55528154691064,136.67146415546455,火・水・木・金/11:30 - 14:00/月・土・日/定休日,,-,-,2015年5月26日
17009423,DAJIA,居酒屋,0.0, - ,https://tabelog.com/ishikawa/A1701/A170101/17009423/,石川県/金沢市/石引/1-16-17,36.55293993717764,136.67430969535692,18:00 - 02:00,,-,-,
17001106,板門店,焼肉,3.09,13,https://tabelog.com/ishikawa/A1701/A170101/17001106/,石川県/金沢市/泉/1-5-57,36.55065863636352,136.64228109419463,月・火・金・土・日/17:30 - 22:30/L.O. 22:00/水・木/定休日,,"￥4,000～￥4,999",-,
17014878,TINY COFFEE STAND,コーヒースタンド,3.02,1,https://tabelog.com/ishikawa/A1701/A170101/17014878/,石川県/金沢市/泉/1-1-1,36.551860337169096,136.64527719536645,,予約不可,-,-,
17008900,ふくら屋,惣菜・デリ,3.01,3,https://tabelog.com/ishikawa/A1701/A170101/17008900/,石川県/金沢市/泉/3-6-48,36.54453263636618,136.63841889413547,月・火・水・木・金・土/09:00 - 18:00/日・祝日/定休日,,-,-,
17001581,丸福,中華料理,3.01,1,https://tabelog.com/ishikawa/A1701/A170101/17001581/,石川県/金沢市/泉/1-5-60,36.55081637716884,136.64243414535787,火・水・木・金・土・日/11:00 - 21:00/月/定休日,,-,-,
17001184,吟屋,居酒屋,3.0,3,https://tabelog.com/ishikawa/A1701/A170101/17001184/,石川県/金沢市/泉/1-5-20,36.55043740595492,136.64301869644564,火・水・木・金・土・日/11:30 - 14:00/17:30 - 00:00/L.O. 23:30/月/定休日,,-,-,
17003393,志摩,レストラン,0.0,2,https://tabelog.com/ishikawa/A1701/A170101/17003393/,石川県/金沢市/泉/1-3-14,36.5511453371685,136.6420208853615,,,-,-,
17002297,ときわ寿し,寿司,0.0, - ,https://tabelog.com/ishikawa/A1701/A170101/17002297/,石川県/金沢市/泉/1-5-56,36.55070232716883,136.6421691353569,,,-,-,
17002421,大龍寿司,寿司,0.0, - ,https://tabelog.com/ishikawa/A1701/A170101/17002421/,石川県/金沢市/泉/3-6-35,36.54455492119393,136.63992976826512,,,-,-,
17008286,宮岸菓子舗,和菓子,0.0, - ,https://tabelog.com/ishikawa/A1701/A170101/17008286/,石川県/金沢市/泉/3-6-37,36.54452655717198,136.63975654529625,07:00 - 19:00,,-,～￥999,
17006629,興風園,カフェ,0.0, - ,https://tabelog.com/ishikawa/A1701/A170101/17006629/,石川県/金沢市/泉/3-3-17,36.545025999078085,136.6409121649883,08:30 - 19:00,,-,-,
17007488,やまの葉,そば,3.39,79,https://tabelog.com/ishikawa/A1701/A170101/17007488/,石川県/金沢市/泉が丘/2-11-32/ドリームＡ.Ｙ １Ｆ,36.53990936717677,136.64559979524552,月・火・木・金・土・日/11:00 - 14:00/18:00 - 20:30/水/定休日 ■ 定休日/第2火曜,予約可,"￥1,000～￥1,999","￥1,000～￥1,999",2011年12月
17000050,リストランテ ラヴィータ,イタリアン,3.31,60,https://tabelog.com/ishikawa/A1701/A170101/17000050/,石川県/金沢市/泉が丘/2-6-32,36.53988886322357,136.64620501749613,水・木・金・土・日/11:30 - 14:00/18:00 - 21:00/月・火/定休日,予約可,"￥5,000～￥5,999","￥2,000～￥2,999",
17001049,かぶと洋菓子店,ケーキ,3.23,43,https://tabelog.com/ishikawa/A1701/A170101/17001049/,石川県/金沢市/泉が丘/2-3-10,36.54087128717698,136.64814577525345,■ 営業時間/12:00～なくなり次第終了/■ 定休日/日曜・月曜,,～￥999,-,
17008977,サロン ド シュークル,ケーキ,3.2,36,https://tabelog.com/ishikawa/A1701/A170101/17008977/,石川県/金沢市/泉が丘/2-11-32,36.53989813637147,136.6457580940835,水・木・金・土・日/12:00 - 16:00/月・火/定休日 ■ 営業時間/※売り切れ次第終了/販売 11:00～18:00/■ 定休日/不定休(SNSにて告知),予約不可,-,-,2014年1月23日
17002669,お多福 南端支店,そば、うどん,3.08,10,https://tabelog.com/ishikawa/A1701/A170101/17002669/,石川県/金沢市/泉が丘/1-19-13,36.54433281717373,136.6448564152907,月・水・木・金・土・日/11:00 - 15:00/17:00 - 20:00/火/定休日,予約可,-,～￥999,
17008322,パリミラ,フレンチ,3.05,10,https://tabelog.com/ishikawa/A1701/A170101/17008322/,石川県/金沢市/泉が丘/1-3-28,36.54405594717474,136.64749173528602,,予約可,-,-,
17004486,七兵衛,ステーキ,3.04,6,https://tabelog.com/ishikawa/A1701/A170101/17004486/,石川県/金沢市/泉が丘/2-6-161-2,36.5398821984633,136.64627334546137,火・水・木・金・土・日/17:00 - 21:30/月/定休日 ■ 定休日/毎週月曜（祝日、祭日は営業）,予約可,-,-,
17005743,キャラバンサライ 泉が丘店,カフェ,3.03,7,https://tabelog.com/ishikawa/A1701/A170101/17005743/,石川県/金沢市/泉が丘/2丁目3番地,36.539915162262176,136.64611448302918,09:00 - 20:00,予約不可,-,～￥999,
17013174,Lab Cafe 泉が丘店,カフェ,4.69, - ,https://tabelog.com/ishikawa/A1701/A170101/17013174/,石川県/金沢市/泉が丘/2-13-39/あおぞら薬局泉が丘店 2F,36.54253382601333,136.64436838158298,,,-,～￥999,
17001473,明洞,韓国料理,3.26,35,https://tabelog.com/ishikawa/A1702/A170203/17001473/,石川県/金沢市/泉野出町/4-3-27,36.53496499554104,136.64907333931916,月・水・木・金・土/11:30 - 14:00/L.O. 13:30/17:00 - 23:00/L.O. 21:30/日/17:00 - 23:00/L.O. 21:30/火/定休日 ■ 営業時間/※ランチは平日、第1・3土曜のみ,予約可,"￥3,000～￥3,999","￥1,000～￥1,999",
17001218,めん房 つるつる 長坂店,うどん、そば,3.18,35,https://tabelog.com/ishikawa/A1701/A170101/17001218/,石川県/金沢市/泉野出町/1-22-21,36.53907521718086,136.65676593522923,11:00 - 21:30,予約可,"￥1,000～￥1,999","￥1,000～￥1,999",
17013201,gemutlich,カフェ、ドイツ料理、パン,3.12,13,https://tabelog.com/ishikawa/A1701/A170101/17013201/,石川県/金沢市/泉野出町/2-22-2/クリーンハイム高田 1F,36.53705033718145,136.65457860521033,月・木・金・土・日/08:00 - 17:00/火・水/定休日 ■ 営業時間/［朝食］8:00〜11:00/［ランチ］11:00〜15:00,予約不可,-,"￥1,000～￥1,999",2021年12月
17012520,らーめん ひかり,ラーメン,3.09,31,https://tabelog.com/ishikawa/A1701/A170101/17012520/,石川県/金沢市/泉野出町/3-10-1,36.53902013637284,136.64833889407282,月・水・木・金・土/11:30 - 14:00/17:00 - 21:00/日/11:00 - 14:00/17:00 - 21:00/火/定休日,予約不可,"￥1,000～￥1,999","￥1,000～￥1,999",2020年10月15日
17001125,割鮮 のむら,日本料理、海鮮、天ぷら,3.08,17,https://tabelog.com/ishikawa/A1701/A170101/17001125/,石川県/金沢市/泉野出町/3-3-32,36.53991903637253,136.64914769408134,月・火・木・金・土・日/17:30 - 22:00/水/定休日 ■定休日/水曜日（祝日は営業/不定休あり）,予約可,"￥8,000～￥9,999",-,1996年10月6日
17003822,万昌苑,焼肉、レストラン,3.08,14,https://tabelog.com/ishikawa/A1701/A170101/17003822/,石川県/金沢市/泉野出町/3-9-3,36.53943223637266,136.64865849407676,■ 定休日/火曜,予約可,"￥3,000～￥3,999",～￥999,
17002814,kayakaya,バル、イタリアン,3.07,16,https://tabelog.com/ishikawa/A1701/A170101/17002814/,石川県/金沢市/泉野出町/3-9-3,36.539401836372726,136.6487490940764,火・水・木・金・土・日/11:30 - 14:00/18:00 - 22:00/月/定休日,予約可,"￥5,000～￥5,999","￥1,000～￥1,999",
17012539,ボナペティ,イタリアン,3.07,11,https://tabelog.com/ishikawa/A1701/A170101/17012539/,石川県/金沢市/泉野出町/3-13-2,36.53935408717857,136.6501455252367,,予約可,"￥3,000～￥3,999","￥1,000～￥1,999",2020年7月1日
17002117,ヴェルジェ,ケーキ、カフェ,3.07,10,https://tabelog.com/ishikawa/A1701/A170101/17002117/,石川県/金沢市/泉野出町/1-22-26/BelleⅡ 1F,36.53886164895288,136.65627283977034,月・火・木・金・土・日/11:00 - 19:00/水/定休日,予約可,-,-,
17015248,金沢 鮨晏,寿司,3.05,3,https://tabelog.com/ishikawa/A1701/A170101/17015248/,石川県/金沢市/泉野出町/2-11-11,36.53772243718071,136.65362399521774,月・火・木・金・土・日/12:00 - 14:00/18:00 - 21:00/水/定休日 営業時間/12:00〜14:00最終入店13:00/18:00〜21:00最終入店19:30/定休日 水曜+不定休,予約可,"￥20,000～￥29,999","￥10,000～￥14,999",2025年6月8日
17000703,８番らーめん 泉ケ丘店,ラーメン,3.04,45,https://tabelog.com/ishikawa/A1701/A170101/17000703/,石川県/金沢市/泉野出町/4-3-32,36.53504519718083,136.64862294519423,11:00 - 00:00,予約不可,～￥999,"￥1,000～￥1,999",
17007861,ディスティーノブルックリンニューヨーク,ビアガーデン、ビアバー、ビアホール,3.04,3,https://tabelog.com/ishikawa/A1701/A170101/17007861/,石川県/金沢市/泉野出町/2-3-6,36.53888781718008,136.6539349052293,水・木・金・土・日・祝日/17:00 - 21:30/月・火/定休日,完全予約制,"￥8,000～￥9,999",-,2007年12月15日
17005700,ココス 泉ヶ丘店,ファミレス,3.03,15,https://tabelog.com/ishikawa/A1701/A170101/17005700/,石川県/金沢市/泉野出町/4-2-16,36.53502436718056,136.64774793519464,09:00 - 00:00,予約不可,-,"￥1,000～￥1,999",1992年
17002849,うっど,喫茶店,0.0, - ,https://tabelog.com/ishikawa/A1701/A170101/17002849/,石川県/金沢市/泉野出町/2-1-30,36.53920003637359,136.65105839407272,,,-,-,
17014393,Sweets Noring,ケーキ,0.0, - ,https://tabelog.com/ishikawa/A1701/A170101/17014393/,石川県/金沢市/泉野出町/1-22-26,36.53883024718088,136.65633349522707,,,-,-,
17013824,Fitness Cafe LOKO,カフェ,0.0, - ,https://tabelog.com/ishikawa/A1701/A170101/17013824/,石川県/金沢市/泉野出町/1-13-21,36.53962703238708,136.65110573365848,■ 営業時間/[水～金]/11:00～14:30(L.O 14:00)/[土・日]/完全予約制/■定休日/月曜日、火曜日,予約可,-,"￥1,000～￥1,999",
17010772,ピッツェリア クエルチャ,ピザ,3.28,42,https://tabelog.com/ishikawa/A1701/A170101/17010772/,石川県/金沢市/泉野町/1-4-6,36.545422447177,136.65730485529298,月・火・木・金・土・日/11:30 - 14:30/L.O. 14:00/17:30 - 22:00/L.O. 21:30/水/定休日,予約可,"￥4,000～￥4,999","￥1,000～￥1,999",
17001466,TERA寛,日本料理、ダイニングバー,3.2,28,https://tabelog.com/ishikawa/A1701/A170101/17001466/,石川県/金沢市/泉野町/5-1-20/泉野パールハイツ　１F,36.54439863637168,136.6554197941222,月・火・木・金・土/11:30 - 14:00/17:30 - 22:30/日・祝日/17:30 - 22:30/水/定休日,予約可,"￥4,000～￥4,999","￥1,000～￥1,999",
17010266,ザ ビーンズ ボックス,コーヒースタンド、サンドイッチ,3.14,22,https://tabelog.com/ishikawa/A1701/A170101/17010266/,石川県/金沢市/泉野町/3-16-20,36.54692802717421,136.65150618531223,月・火・木・金・土・日/10:00 - 15:00/水/定休日,予約可,-,～￥999,2016年8月7日
17000811,しげ乃木,日本料理、郷土料理,3.06,10,https://tabelog.com/ishikawa/A1701/A170101/17000811/,石川県/金沢市/泉野町/1-3-23,36.54571845717663,136.65676049529634,火・水・木・金・土・日/11:00 - 14:00/17:00 - 21:30/月/定休日 ■ 定休日/定休日の営業もお気軽にご相談ください,予約可,"￥8,000～￥9,999","￥3,000～￥3,999",1994年
17011012,焼肉 真心,焼肉,3.05,6,https://tabelog.com/ishikawa/A1701/A170101/17011012/,石川県/金沢市/泉野町/5-3-3,36.54438755717654,136.653801055285,17:00 - 00:00/L.O. 23:00,予約可,-,-,2017年10月
17001913,咸陽郡,焼肉、ホルモン、韓国料理,3.03,4,https://tabelog.com/ishikawa/A1701/A170101/17001913/,石川県/金沢市/泉野町/1-18-16,36.544740867176536,136.65450110528803,月・水・木・金・土・日/16:00 - 23:00/火/定休日 ■ 営業時間/営業時間 16：00～23:00頃/※ 22：00までに入店してください。/■ 定休日/毎週 火曜日 (祭日、お盆、正月は 振替ni),予約可,"￥3,000～￥3,999",-,2001年8月30日
17012106,dining &bar HOMEY,ダイニングバー、バー,3.03,2,https://tabelog.com/ishikawa/A1701/A170101/17012106/,石川県/金沢市/泉野町/5-1-9,36.54454852369105,136.65530015871744,,,-,-,2020年2月27日
17007529,金沢　うら田 泉野店,和菓子,3.02,4,https://tabelog.com/ishikawa/A1701/A170101/17007529/,石川県/金沢市/泉野町/4-8-21,36.54437593717593,136.65186353528622,月・火・水・木・金・土/09:00 - 18:00/日/09:00 - 17:00 ■ 定休日/元日、1月2日、不定休,,-,-,
17004689,エルカフェひなげし,喫茶店,3.0,2,https://tabelog.com/ishikawa/A1701/A170101/17004689/,石川県/金沢市/泉野町/4-22-22/金沢市立泉野図書館 1F,36.54394963636993,136.6490503941221,月・水・木・金/10:00 - 17:00/土・日・祝日/10:00 - 16:00/火/定休日 ■営業時間/[月・水〜金]10:00〜17:00/[土・日・祝]10:00〜16:00/■ 定休日/火曜日(祝日･振替休日と重なった場合は開館)/特別整理期間(6月第1月曜日-翌々日、11月の最終月曜日-翌週の金曜日)/年末年始(12/29-1/4),,-,～￥999,
17012233,マルエー 泉野店,コンビニ・スーパー,3.0,2,https://tabelog.com/ishikawa/A1701/A170101/17012233/,石川県/金沢市/泉野町/1-9-3,36.54520154717673,136.65602127529164,09:30 - 22:00,,～￥999,～￥999,
17014394,もっちふる,スイーツ,0.0, - ,https://tabelog.com/ishikawa/A1701/A170101/17014394/,石川県/金沢市/泉野町/4-8-18/1F,36.544404197938185,136.6519502282507,10:00 - 18:00 ■ 定休日/不定休,,-,-,2024年2月1日
17003517,たこまる,たこ焼き,0.0, - ,https://tabelog.com/ishikawa/A1701/A170101/17003517/,石川県/金沢市/泉野町/1-4-11,36.54523847213841,136.65676449422696,,,-,-,
17013145,焼肉 戸板商店 西泉店,焼肉,3.28,19,https://tabelog.com/ishikawa/A1701/A170101/17013145/,石川県/金沢市/泉本町/7-7-1/コレクトパーク金沢,36.55236336716497,136.63337700537986,月・火・水・木・金/11:30 - 14:30/L.O. 13:30/17:00 - 00:00/L.O. 23:00/土・日・祝日/11:30 - 14:30/L.O. 13:30/16:00 - 00:00/L.O. 23:00,予約可,"￥5,000～￥5,999","￥1,000～￥1,999",2021年11月10日
17010990,菓ふぇ ムラカミ,カフェ,3.24,59,https://tabelog.com/ishikawa/A1701/A170101/17010990/,石川県/金沢市/泉本町/1-4,36.544537857171015,136.63675278529846,月・水・木・金・土・日/10:00 - 17:00/L.O. 16:30/火/定休日 ■ 営業時間/※ショップスペース 8:45〜18:00,予約可,-,"￥1,000～￥1,999",
17012617,ぱん焼きば みきんち,パン,3.19,14,https://tabelog.com/ishikawa/A1701/A170101/17012617/,石川県/金沢市/泉本町/1-7-2,36.544467027170846,136.63608153529822,月・水・木・金・土・日/08:00 - 18:00/火/定休日 ■ 営業時間/ハード系が焼き上がるのは10:00頃/■ 定休日/火曜、第2第4水曜,,-,-,2021年2月5日
17010826,炭火焼肉 康,焼肉、居酒屋、ラーメン,3.17,25,https://tabelog.com/ishikawa/A1701/A170101/17010826/,石川県/金沢市/泉本町/5-81-3,36.55259003635972,136.63416589421982,火・水・木・金・土・日・祝日・祝前日・祝後日/17:00 - 01:00/L.O. 00:00/月/定休日,予約可,"￥3,000～￥3,999",-,2017年9月20日
17010294,ズイウン ダイニング 金沢店,ダイニングバー、イタリアン、カフェ,3.09,58,https://tabelog.com/ishikawa/A1701/A170101/17010294/,石川県/金沢市/泉本町/4-17,36.55093023636253,136.63972559419915,月/11:00 - 19:00/水・木・金/11:00 - 22:00/土・日・祝日/10:00 - 22:00/火/定休日 ■ 営業時間/【カフェ】/水〜金 11:00～22:00(L.O 21:00)/土日祝 10:00～22:00(L.O 21:00)/月曜日 11:00〜19:00(L.O 18:00)/【ランチ】/月・水〜日11:30~15:00（14:00L.O）/【ディナー】/水～日 18:00〜22:00 (21:00L.O)/■ 定休日/火曜日(祝日の場合は営業),予約可,"￥3,000～￥3,999","￥1,000～￥1,999",2016年8月25日
17007846,TERU,ビアバー、ワインバー、バル,3.08,16,https://tabelog.com/ishikawa/A1701/A170101/17007846/,石川県/金沢市/泉本町/3-116/野村ビル １階,36.5507704363618,136.63706699419942,火/18:00 - 03:00/L.O. 02:00/水・木・金・土・日・祝日・祝前日/11:30 - 15:00/L.O. 14:00/18:00 - 03:00/L.O. 02:00/月/定休日 ■ 営業時間/☆22時頃よりバータイムとなります。(20歳未満は立ち入り禁止とさせていただきます),予約可,"￥5,000～￥5,999","￥1,000～￥1,999",2012年6月
17006257,串だるま,焼き鳥,3.07,11,https://tabelog.com/ishikawa/A1701/A170101/17006257/,石川県/金沢市/泉本町/3-116,36.55074593636177,136.63696379419923,火・水・木・金・土/18:00 - 00:00/日/18:00 - 23:00/月/定休日 都合により他曜日臨時休業有り,予約可,"￥3,000～￥3,999",-,
17005934,旬菜庵わさび,居酒屋、日本料理、創作料理,3.05,5,https://tabelog.com/ishikawa/A1701/A170101/17005934/,石川県/金沢市/泉本町/2-145-3,36.55076658716751,136.63817729536038,18:00 - 05:00 ■ 営業時間/※深夜0時までの来店で5時まで延長営業致します。/■ 定休日/不定休,完全予約制,"￥6,000～￥7,999",-,
17011462,鉄板悠,鉄板焼き、ステーキ、お好み焼き,3.05,4,https://tabelog.com/ishikawa/A1701/A170101/17011462/,石川県/金沢市/泉本町/3-116/野村ビル 1F,36.55075495716714,136.63699589536105,月・火・木・金・土・日/17:00 - 00:00/水/定休日,,"￥3,000～￥3,999",-,
17006163,和菓子 村上 本社店,和菓子,3.03,26,https://tabelog.com/ishikawa/A1701/A170101/17006163/,石川県/金沢市/泉本町/1-4,36.54453658717102,136.63675213529845,08:45 - 17:30 ■ 定休日/元日、不定休,予約可,-,-,1911年
17012430,ゆで太郎 金沢泉本町店,そば,3.03,21,https://tabelog.com/ishikawa/A1701/A170101/17012430/,石川県/金沢市/泉本町/6-81-3,36.5549630363586,136.63547189424284,06:00 - 23:00 ■ 営業時間/※時短営業中/6:00～20:00/■ 定休日/無休,予約不可,～￥999,～￥999,2020年10月23日
17012215,八○三のやきにく屋さん,焼肉,3.03,3,https://tabelog.com/ishikawa/A1701/A170101/17012215/,石川県/金沢市/泉本町/3-116,36.55074593636177,136.63696379419923,,予約可,"￥4,000～￥4,999",-,2020年3月1日
17013309,ラ・クレソン 西泉店,パン、サンドイッチ,3.0,1,https://tabelog.com/ishikawa/A1701/A170101/17013309/,石川県/金沢市/泉本町/7-7-1/大阪屋ショップ 西泉店,36.5531571071644,136.63314993538802,09:00 - 22:00,予約不可,-,-,2021年10月26日
17013120,大阪屋ショップ 西泉店,コンビニ・スーパー,0.0,1,https://tabelog.com/ishikawa/A1701/A170101/17013120/,石川県/金沢市/泉本町/7-7-1,36.5531576171644,136.63314893538805,,,-,-,
17001826,きらく,ラーメン,0.0, - ,https://tabelog.com/ishikawa/A1701/A170101/17001826/,石川県/金沢市/泉本町/5-26,36.55203091716615,136.63641726537435,,,-,-,
17002915,のぶ,喫茶店,0.0, - ,https://tabelog.com/ishikawa/A1701/A170101/17002915/,石川県/金沢市/泉本町/6-59-7,36.55408593635961,136.63685159423304,,,-,-,
17012561,元祖 金沢丼丸 出雲町店,海鮮丼,3.01,3,https://tabelog.com/ishikawa/A1701/A170101/17012561/,石川県/金沢市/出雲町/イ230-2/ビジネスセンター308タウン 1F,36.578012057145294,136.62273544564638,月・水・木・金・土・日/11:00 - 20:00/火/定休日,,-,～￥999,
17013374,クリスプサラダ専門店 ナチュレグ,サラダ、野菜料理,4.69,2,https://tabelog.com/ishikawa/A1701/A170101/17013374/,石川県/金沢市/出雲町/イ230-2/ビジネスセンター308タウン,36.57789252714538,136.6227454856452,火・水・木・金・土・日/11:00 - 18:00/月/定休日,予約可,-,～￥999,
17007201,八幡すしべん 高柳店,弁当、うどん、親子丼,3.17,25,https://tabelog.com/ishikawa/A1701/A170101/17007201/,石川県/金沢市/磯部町/ニ6-2,36.59886201714374,136.65943478583128,05:00 - 22:00/L.O. 21:30,予約不可,～￥999,～￥999,
17002081,福々庵,そば、うどん,3.1,29,https://tabelog.com/ishikawa/A1701/A170101/17002081/,石川県/金沢市/磯部町/ニ-22,36.59992863633754,136.6589669946806,11:00 - 15:00/18:00 - 20:30,予約可,-,～￥999,1982年10月14日
17000351,お好み本舗 んまい屋 金沢店,お好み焼き、もんじゃ焼き,3.09,25,https://tabelog.com/ishikawa/A1701/A170101/17000351/,石川県/金沢市/磯部町/ニ-27番地1,36.599107636338125,136.65917129467215,月・火・水・木・金/11:30 - 14:00/L.O. 13:30/18:00 - 23:00/L.O. 22:30/土・日・祝日/11:30 - 23:00/L.O. 22:30,予約可,"￥1,000～￥1,999","￥1,000～￥1,999",
17011033,綾珈琲,喫茶店,3.02,2,https://tabelog.com/ishikawa/A1701/A170101/17011033/,石川県/金沢市/磯部町/ヲ4-3,36.595309937143455,136.65146066580095,火・木・土/10:00 - 16:30/月・水・金・日/定休日,,-,～￥999,
17001700,ふく楽,居酒屋、焼き鳥,3.24,26,https://tabelog.com/ishikawa/A1701/A170101/17001700/,石川県/金沢市/糸田/2-20-1,36.5596586363524,136.62530219429743,,予約可,"￥5,000～￥5,999",-,
17011144,ターバンカレー 金沢糸田店,カレー、とんかつ、カフェ,3.09,37,https://tabelog.com/ishikawa/A1701/A170101/17011144/,石川県/金沢市/糸田/2-181/ヴィレーラ 1F,36.558929477157605,136.62332356545323,月・火・水・金・土・日/11:00 - 20:00/木/定休日,予約不可,～￥999,～￥999,2018年4月10日
17007093,天とてん 金沢本店,その他,4.69, - ,https://tabelog.com/ishikawa/A1701/A170101/17007093/,石川県/金沢市/糸田/1-181,36.55737025995592,136.62647918418216,09:30 - 14:00/16:30 - 20:30,,-,-,
17001519,まなびぃ,パン,3.05,5,https://tabelog.com/ishikawa/A1701/A170101/17001519/,石川県/金沢市/糸田新町/16-15,36.55629433716056,136.62740439542392,火/12:00 - 17:00/月・水・木・金・土・日/定休日 ■ 営業時間/【第2・4 火曜日】12時〜17時頃,,-,-,
17011387,芝寿しのさと,食堂,3.31,54,https://tabelog.com/ishikawa/A1701/A170101/17011387/,石川県/金沢市/いなほ/2-5,36.55093514714906,136.58056423540245,月・火・木・金/09:00 - 17:00/土・日・祝日/08:30 - 17:00/水/定休日 【お弁当販売】/•平日 9:00-17:00/•土日祝 8:30-17:00/【飲食】/•11:00〜（ラストオーダーは13:30）/【定休日】/•お弁当販売休業／1月1日/•飲食休業／毎週水曜日,予約可,-,"￥1,000～￥1,999",2018年11月1日
17008656,柴舟小出 いなほ工場店,和菓子,3.06,27,https://tabelog.com/ishikawa/A1701/A170101/17008656/,石川県/金沢市/いなほ/2-8,36.55011781714959,136.58061682539417,09:30 - 18:00 ■ 定休日/無休(1月1日～1月2日のみ休み),予約可,-,-,
17015225,芝寿し いなほ本社・工場,その他,4.69,1,https://tabelog.com/ishikawa/A1702/A170203/17015225/,石川県/金沢市/いなほ/2-4,36.55243700714823,136.58095971541732,,,-,-,
17012637,ゲッコ洞,カレー,3.31,36,https://tabelog.com/ishikawa/A1701/A170101/17012637/,石川県/金沢市/茨木町/24-5,36.55756893636404,136.65767059425363,火・水・木・金・土/11:00 - 14:00/18:00 - 21:00/日/11:00 - 14:00/月/定休日 ■ 営業時間/［日］/売り切れ次第終了,予約不可,"￥1,000～￥1,999",-,2020年3月
17014548,SANT,カフェ,3.08,7,https://tabelog.com/ishikawa/A1701/A170101/17014548/,石川県/金沢市/茨木町/56-3/鞍月舎 1F,36.55708331645296,136.6565814196286,月・火・水・金・土・日/11:00 - 18:00/L.O. 17:30/木/定休日,予約不可,-,"￥1,000～￥1,999",
17002840,道草カフェ アルプ,喫茶店,3.01,1,https://tabelog.com/ishikawa/A1701/A170101/17002840/,石川県/金沢市/茨木町/68-5,36.556307536364926,136.6579696942407,,,-,～￥999,
17002107,リストランテ　キタ,イタリアン,3.03,6,https://tabelog.com/ishikawa/A1701/A170101/17002107/,石川県/金沢市/今町/チ-40-4,36.633824947137,136.70802374615036,月・火・水・木・金/11:30 - 14:00/18:00 - 23:00/土・祝日/11:30 - 13:30/18:00 - 23:00/日/定休日,予約可,-,"￥1,000～￥1,999",2002年
17000173,鮨 志の助,寿司,3.81,358,https://tabelog.com/ishikawa/A1701/A170101/17000173/,石川県/金沢市/入江/3-73,36.56713363634682,136.62272489437476,月・火・水・木・金・土/12:00 - 14:30/18:00 - 21:30/日・祝日/定休日 ■ 定休日/2010年10月頃より水曜休,予約可,"￥30,000～￥39,999","￥20,000～￥29,999",
17013672,赤だるま,ラーメン,3.24,44,https://tabelog.com/ishikawa/A1701/A170101/17013672/,石川県/金沢市/入江/1-22,36.56610927715574,136.63180399551985,月・火・水・木・日・祝日/11:30 - 21:30/L.O. 21:00/金・土・祝前日/11:30 - 22:30/L.O. 22:00 ■ 定休日/不定休,予約不可,～￥999,～￥999,2022年11月15日
17008626,フレッシュベイク 入江店,パン,3.22,35,https://tabelog.com/ishikawa/A1701/A170101/17008626/,石川県/金沢市/入江/2-341,36.56767999715258,136.62502445554043,火・水・木・金・土・日/07:00 - 18:30/月/定休日 【定休日】/毎週月曜日/第三火曜,予約可,-,-,2013年12月14日
17008920,ヤハタすしべん 入江店,弁当、そば、うどん,3.14,32,https://tabelog.com/ishikawa/A1701/A170101/17008920/,石川県/金沢市/入江/2-32,36.565790997153336,136.62360061552232,24時間営業 ■ 定休日/不定休,予約不可,～￥999,～￥999,
17011582,ふく家,そば,3.11,10,https://tabelog.com/ishikawa/A1701/A170101/17011582/,石川県/金沢市/入江/1-284,36.56769485715424,136.63023741553693,月・水・木・金・土・日/11:30 - 14:30/火/定休日,,-,～￥999,
17009673,焼肉こさり,焼肉、ホルモン,3.07,14,https://tabelog.com/ishikawa/A1701/A170101/17009673/,石川県/金沢市/入江/2-86,36.56630673634776,136.62400569436548,火・水・木・金・土・日/17:00 - 22:00/L.O. 21:30/祝日/17:00 - 22:00/月/定休日 ■ 定休日/月曜日(祝日の際は営業、翌火曜日休み),予約可,"￥3,000～￥3,999",-,2015年6月22日
17010771,むさしの森珈琲 金沢入江店,カフェ,3.06,72,https://tabelog.com/ishikawa/A1701/A170101/17010771/,石川県/金沢市/入江/2-89-92,36.56697363715279,136.62424729553382,07:00 - 23:00/L.O. 22:00,予約不可,"￥1,000～￥1,999","￥1,000～￥1,999",2017年8月9日
17001831,千番,ラーメン,3.05,18,https://tabelog.com/ishikawa/A1701/A170101/17001831/,石川県/金沢市/入江/2-189-3,36.56472835715526,136.62755939550885,月・火・水・木・金/11:00 - 18:30/土・日・祝日/定休日,,～￥999,～￥999,
17005159,たこ栄,たこ焼き,3.05,10,https://tabelog.com/ishikawa/A1701/A170101/17005159/,石川県/金沢市/入江/2-236,36.565683527154754,136.62785697551826,月・火・水・木・金・土/11:00 - 18:00/日・祝日/定休日,予約可,-,～￥999,
17012077,親鶏・鶏ホルモン 港屋,鳥料理、焼肉、ホルモン,3.05,4,https://tabelog.com/ishikawa/A1701/A170101/17012077/,石川県/金沢市/入江/1-47,36.56526611715575,136.63015171551243,月・火・木・金・土・日/17:30 - 23:00/L.O. 22:00/水/定休日,予約可,"￥3,000～￥3,999",-,2019年9月10日
17002174,よし本,日本料理,3.05,3,https://tabelog.com/ishikawa/A1701/A170101/17002174/,石川県/金沢市/入江/1-46,36.56532906715573,136.63021591551305,月・火・木・金・土・日/17:00 - 00:00/L.O. 23:00/水/定休日,予約可,"￥4,000～￥4,999",-,
17005872,無添くら寿司 金沢入江店,回転寿司,3.04,29,https://tabelog.com/ishikawa/A1701/A170101/17005872/,石川県/金沢市/入江/3-15,36.56615212715274,136.62247574552677,11:00 - 23:00 ■ 営業時間/※ご入店は閉店時間の30分前まで,予約不可,"￥1,000～￥1,999","￥1,000～￥1,999",
17015467,RRS MEAT リョウマくんのお店,惣菜・デリ,3.04,2,https://tabelog.com/ishikawa/A1701/A170101/17015467/,石川県/金沢市/入江/2-46,36.56520537715431,136.6254878855151,月・火・木・金・土・日/10:00 - 19:00/水/定休日,予約不可,-,-,2025年9月13日
17007083,タリーズコーヒー 金沢入江店,カフェ,3.03,20,https://tabelog.com/ishikawa/A1701/A170101/17007083/,石川県/金沢市/入江/2-188,36.56458446715542,136.62775783550725,09:00 - 22:00,予約可,-,～￥999,
17008216,カフェ トライ アゲイン,カフェ,3.03,7,https://tabelog.com/ishikawa/A1701/A170101/17008216/,石川県/金沢市/入江/2-235,36.56563283634938,136.62777149435607,火・水・木・金・土・日/10:00 - 18:00/月/定休日 ■ 定休日/第3土曜日・第3日曜日(加えて年末年始休み),,-,-,
17004903,ラクーンハウス,食堂、パン、料理旅館,3.03,3,https://tabelog.com/ishikawa/A1701/A170101/17004903/,石川県/金沢市/入江/2-251,36.56632854715419,136.62737501552513,月・火・水・木・金/11:30 - 14:00/17:00 - 20:00/土・日・祝日/定休日 ■ 営業時間/【焼きたてパン】/12時頃から販売,予約不可,"￥1,000～￥1,999",～￥999,
17005642,８番らーめん 入江店,ラーメン,3.02,27,https://tabelog.com/ishikawa/A1701/A170101/17005642/,石川県/金沢市/入江/3-143,36.56852785715208,136.62512850554893,11:00 - 22:00/L.O. 21:30,予約可,～￥999,～￥999,2015年3月3日
17000775,道とん堀 金沢入江店,お好み焼き、もんじゃ焼き、焼きそば,3.02,17,https://tabelog.com/ishikawa/A1701/A170101/17000775/,石川県/金沢市/入江/3-46,36.56663443634733,136.62330599436928,11:30 - 00:00/L.O. 23:00,,"￥1,000～￥1,999","￥1,000～￥1,999",
17009874,手作り串焼き　えんがわ,串焼き、居酒屋、焼酎バー,3.02,3,https://tabelog.com/ishikawa/A1701/A170101/17009874/,石川県/金沢市/入江/3丁目31番地1,36.56697486715185,136.6213003055359,17:00 - 00:00 ■ 定休日/不定休,予約可,-,-,2015年11月11日
17014814,鮨ほまれ,寿司,3.02,1,https://tabelog.com/ishikawa/A1701/A170101/17014814/,石川県/金沢市/入江/3-99,36.56786606715206,136.62375456554318,■営業時間/[月～土]18:00～22:00/■定休日/日曜日、祝日,,-,-,2024年9月6日
17002710,はなまるうどん 金沢入江店,うどん,3.01,22,https://tabelog.com/ishikawa/A1701/A170101/17002710/,石川県/金沢市/入江/1-31,36.565226757155976,136.6307748755116,10:00 - 22:00,予約可,～￥999,～￥999,
17000821,ガスト 金沢入江店,ファミレス,3.01,18,https://tabelog.com/ishikawa/A1701/A170101/17000821/,石川県/金沢市/入江/2丁目168,36.565425236348965,136.6260197943552,月・火・水・木・金・土・日・祝日/08:00 - 23:30,予約不可,-,～￥999,
17007858,なか卯 金沢入江店,牛丼、親子丼、うどん,3.01,13,https://tabelog.com/ishikawa/A1701/A170101/17007858/,石川県/金沢市/入江/2-64,36.56591703634816,136.62448599436124,24時間営業,予約可,～￥999,-,
17006430,庵かふぇ,カフェ,3.01,2,https://tabelog.com/ishikawa/A1701/A170101/17006430/,石川県/金沢市/入江/2-401/陶庵　２F,36.567495305446414,136.6274730799087,月・火・水・金・土・日/13:00 - 21:00/木/定休日,,-,-,2010年7月11日
17010414,セブンイレブン 金沢入江1丁目,コンビニ・スーパー,0.0,1,https://tabelog.com/ishikawa/A1701/A170101/17010414/,石川県/金沢市/入江/1-202,36.5669987171554,136.63249344552833,24時間営業,,-,-,
17010160,すし上等! 金沢西店,寿司,0.0, - ,https://tabelog.com/ishikawa/A1701/A170101/17010160/,石川県/金沢市/入江/2-177,36.56487653715505,136.62718729551062,月・火・水・木・金/11:00 - 21:00/土・日・祝日/11:00 - 22:00 ■ 定休日/無休(12/30～1/3のみ休み),,-,-,
17013755,味の百萬石,惣菜・デリ,0.0, - ,https://tabelog.com/ishikawa/A1701/A170101/17013755/,石川県/金沢市/入江/1-276,36.56745267715457,136.63080101553408,,,-,-,
17011690,カーヴ・ド・ヴェレゾン,その他,0.0, - ,https://tabelog.com/ishikawa/A1701/A170101/17011690/,石川県/金沢市/入江/1-29,36.56552274715589,136.63112655551438,,,-,-,
17003621,もり平,レストラン,0.0, - ,https://tabelog.com/ishikawa/A1701/A170101/17003621/,石川県/金沢市/入江/1-601,36.56820270715336,136.62850396554327,,,-,-,
17012469,レストランぶどうの森 レ・トネル,フレンチ,4.01,80,https://tabelog.com/ishikawa/A1701/A170101/17012469/,石川県/金沢市/岩出町/ハ50-1/ぶどうの森・本店,36.61426363714644,136.69863035595938,月・火・水/11:30 - 16:00/L.O. 料理13:00/18:00 - 22:00/L.O. 料理19:00/金・土・日・祝日/12:00 - 16:00/L.O. 料理13:00/18:00 - 22:00/L.O. 料理19:00/木/定休日,完全予約制,"￥8,000～￥9,999","￥6,000～￥7,999",2019年11月1日
17000012,イタリアンカフェぶどうの森 本店,イタリアン,3.3,58,https://tabelog.com/ishikawa/A1701/A170101/17000012/,石川県/金沢市/岩出町/ハ50-1,36.61363605069411,136.6982364675013,11:00 - 20:00 ■ 営業時間/※平日は16:00までの営業になる日がありますので/ご来店前にお問いあわせください/■定休日/無休,予約可,"￥2,000～￥2,999","￥1,000～￥1,999",1982年8月10日
17001461,洋菓子工房ぶどうの森 本店,ケーキ、バームクーヘン、洋菓子,3.13,22,https://tabelog.com/ishikawa/A1701/A170101/17001461/,石川県/金沢市/岩出町/ハ50-1,36.61366019714672,136.6982951559535,09:30 - 18:00,予約可,～￥999,～￥999,1987年12月10日
17010306,まめや 金澤 萬久 本店,和菓子,3.09,61,https://tabelog.com/ishikawa/A1701/A170101/17010306/,石川県/金沢市/岩出町/ハ50-1/ぶどうの木本店,36.61427639714644,136.69864900595948,09:30 - 19:00 ■ 定休日/不定休,予約不可,-,-,2016年4月22日
17000301,ラ・ヴィーニュぶどうの木,フレンチ,3.07,15,https://tabelog.com/ishikawa/A1701/A170101/17000301/,石川県/金沢市/岩出町/ハ50-1,36.61428617714642,136.6986294359596,■ 営業時間/■営業時間：完全予約制/（ル・バンケは30名様、ラ・ヴィーニュは10名様より承ります）/■ 定休日/不定休,完全予約制,"￥5,000～￥5,999","￥3,000～￥3,999",1990年10月1日
17012468,ハーブガーデン,カフェ,3.04,3,https://tabelog.com/ishikawa/A1701/A170101/17012468/,石川県/金沢市/岩出町/ハ50-1,36.61386463583687,136.69814951975331,10:00 - 18:30 ■ 定休日/不定休,,-,-,
17013531,ぶどうの森 ガーデン&ファーム,ソフトクリーム,3.0,1,https://tabelog.com/ishikawa/A1701/A170101/17013531/,石川県/金沢市/岩出町/ハ50-1,36.61361503714674,136.69828529595307,,予約不可,-,～￥999,
17011592,レストランぶどうの森 ル・バンケ,フレンチ,4.69, - ,https://tabelog.com/ishikawa/A1701/A170101/17011592/,石川県/金沢市/岩出町/ハ50-1,36.614285837146426,136.6986297559596,■営業時間：完全予約制/（ル・バンケは30名様、ラ・ヴィーニュは10名様より承ります）/■ 定休日/不定休,完全予約制,"￥6,000～￥7,999","￥5,000～￥5,999",2000年8月1日
17013416,金沢茶寮,カフェ,3.02,5,https://tabelog.com/ishikawa/A1701/A170101/17013416/,石川県/金沢市/卯辰町/チ16-17,36.57453426716355,136.67314448557593,,予約可,-,"￥1,000～￥1,999",
17008683,聖ヨゼフカフェ,カフェ、パン、洋菓子,3.01,2,https://tabelog.com/ishikawa/A1701/A170101/17008683/,石川県/金沢市/打木町/東155,36.570037927133264,136.56906312560346,月・火・水・木・金/10:00 - 17:00/土・日・祝日/定休日,,-,-,2004年4月1日
17011364,めんや 安寿,ラーメン,3.45,90,https://tabelog.com/ishikawa/A1701/A170101/17011364/,石川県/金沢市/畝田中/2-98,36.59498122594463,136.6099399371989,水・木・金/11:00 - 14:00/18:00 - 20:00/土・日/11:00 - 14:00/月・火/定休日 ■ 営業時間/スープがなくなり次第終了/■ 定休日/不定休,予約不可,-,～￥999,2018年10月1日
17003477,お好み焼 かわさき,お好み焼き、食堂、かつ丼,3.08,11,https://tabelog.com/ishikawa/A1701/A170101/17003477/,石川県/金沢市/畝田中/4-1-26,36.60160303632014,136.60766999473347,火・水・木・金・土・日・祝日/11:00 - 14:00/17:00 - 20:00/月/定休日,,-,～￥999,
17014347,バタークレープ がじゅん,クレープ・ガレット,3.05,3,https://tabelog.com/ishikawa/A1701/A170101/17014347/,石川県/金沢市/畝田中/2-98-4,36.59497863713044,136.60994579582672,火・水・金/11:30 - 14:00/17:00 - 20:00/木/11:30 - 14:00/土/11:30 - 20:00/日/11:30 - 17:00/月/定休日 ■ 定休日/土日祝日キッチンカー出店の為お休みの場合も有,,-,-,2023年11月11日
17002799,麩金,甘味処,3.04,5,https://tabelog.com/ishikawa/A1701/A170101/17002799/,石川県/金沢市/畝田中/4丁目57-2,36.600390267126855,136.60947074588174,,,-,-,
17009206,すき家 金沢畝田店,牛丼、カレー、食堂,3.02,12,https://tabelog.com/ishikawa/A1701/A170101/17009206/,石川県/金沢市/畝田中/3-561,36.59846933712871,136.6114707958608,■ 営業時間/http://maps.sukiya.jp/p/zen004/dtl/ID0100981/?&cond1=1&cond2=1&&his=sw/■定休日/年中無休,,～￥999,-,
17000299,焼肉 味克,焼肉,3.0,2,https://tabelog.com/ishikawa/A1701/A170101/17000299/,石川県/金沢市/畝田中/3丁目7,36.59835028712794,136.60882212586156,,,-,-,
17002715,お食事処 ふみ,うどん、そば,4.69, - ,https://tabelog.com/ishikawa/A1701/A170101/17002715/,石川県/金沢市/畝田中/1-70,36.59195435529524,136.61153244430403,,,-,-,
17002365,三幸寿司,寿司,4.51, - ,https://tabelog.com/ishikawa/A1701/A170101/17002365/,石川県/金沢市/畝田中/4-18-14,36.59985123548494,136.60850205461335,,,-,-,
17005093,きさく,寿司,4.32, - ,https://tabelog.com/ishikawa/A1701/A170101/17005093/,石川県/金沢市/畝田中/4-94-3,36.60158669712641,136.61045192589313,,,-,-,
17014449,田舎 金沢店,うどん,3.15,17,https://tabelog.com/ishikawa/A1701/A170101/17014449/,石川県/金沢市/畝田西/3-580,36.596884570062464,136.60562379554645,火・水・木・金・土・日/11:00 - 15:00/L.O. 料理14:45/17:00 - 20:30/月/定休日,予約不可,"￥1,000～￥1,999","￥1,000～￥1,999",2024年3月5日
17002809,アリーカフェ,カフェ,3.13,21,https://tabelog.com/ishikawa/A1701/A170101/17002809/,石川県/金沢市/畝田西/3-583,36.59724814712756,136.60541617585284,火・水・木・金・土・日/09:00 - 19:00/月/定休日,予約可,-,～￥999,
17010274,満州家庭料理 中華居酒屋 満香園,中華料理,3.08,22,https://tabelog.com/ishikawa/A1701/A170101/17010274/,石川県/金沢市/畝田西/3-513,36.59685233712831,136.60698819584772,月・水・木・金/11:30 - 14:00/17:30 - 00:00/L.O. 23:30/土・日・祝日/12:00 - 14:30/17:30 - 00:00/L.O. 23:30/火/定休日 ■ 営業時間/＊ランチメニューは平日のみ/＊通常メニューもオーダーできます/■ 定休日/火曜日(祝日の場合は営業)＊火曜日が祝日の場合祝日明けがお休みとなります,予約可,"￥1,000～￥1,999",～￥999,2016年8月2日
17006518,丸亀製麺 金沢畝田店,うどん,3.07,41,https://tabelog.com/ishikawa/A1701/A170101/17006518/,石川県/金沢市/畝田西/1-3-1,36.59439539712956,136.60602792582358,11:00 - 22:00/L.O. 21:30,,～￥999,～￥999,2010年10月15日
17001646,居酒屋KOK,居酒屋、ダイニングバー、バー,3.04,7,https://tabelog.com/ishikawa/A1701/A170101/17001646/,石川県/金沢市/畝田西/3-593,36.59605631026928,136.60544803852957,火・水・木・金・土/18:00 - 00:00/L.O. 23:00/日/17:00 - 22:00/L.O. 21:30/月/定休日,予約可,-,-,
17006192,吉野家 金沢畝田店,牛丼、カレー、食堂,3.03,23,https://tabelog.com/ishikawa/A1701/A170101/17006192/,石川県/金沢市/畝田西/1-103,36.59386631713026,136.60717395581744,07:00 - 00:00,予約不可,～￥999,～￥999,2010年4月3日
17012235,居酒屋 おかん,居酒屋,3.03,4,https://tabelog.com/ishikawa/A1701/A170101/17012235/,石川県/金沢市/畝田西/2-24,36.59400576713055,136.60830710581806,,,-,-,2020年5月20日
17011203,Angle,ケーキ,3.02,2,https://tabelog.com/ishikawa/A1701/A170101/17011203/,石川県/金沢市/畝田西/2-173,36.59284033848128,136.61027119765734,火・木・土/10:30 - 16:00/月・水・金・日/定休日,,-,"￥1,000～￥1,999",
17015544,ay's cafe,カフェ,0.0,1,https://tabelog.com/ishikawa/A1701/A170101/17015544/,石川県/金沢市/畝田西/2-175,36.59268376657504,136.61016740499608,火・水・木・金・土・日/10:00 - 17:00/月/定休日,,-,-,
17012160,レフティー,バー,0.0, - ,https://tabelog.com/ishikawa/A1701/A170101/17012160/,石川県/金沢市/畝田西/2-90,36.593367636325766,136.6089158946494,,,-,-,
17013126,1/3 HAMBURGER FACTORY,ハンバーガー,3.74,162,https://tabelog.com/ishikawa/A1701/A170101/17013126/,石川県/金沢市/畝田東/4-1125,36.599183636323126,136.61223679470584,11:00 - 20:30/L.O. 20:00 営業時間 11:00 〜 20:30(20:00l.o)/冬季営業時間 11:00 〜 20:00(19:30l.o)/定休日 不定休,予約可,"￥2,000～￥2,999","￥2,000～￥2,999",
17013501,BOULANGERIE NiCONE,パン、サンドイッチ,3.26,27,https://tabelog.com/ishikawa/A1701/A170101/17013501/,石川県/金沢市/畝田東/2-508,36.59574315713212,136.6167367458297,月・木・金・土・日/09:00 - 18:00/火・水/定休日,予約可,～￥999,～￥999,2022年6月23日
17010355,ショコラトリー・パティスリー カカオテ,ケーキ、チョコレート、洋菓子,3.19,21,https://tabelog.com/ishikawa/A1701/A170101/17010355/,石川県/金沢市/畝田東/4-1123,36.59928458712848,136.6123758458685,火・水・木・金・土/10:30 - 17:00/月・日/定休日,,-,-,2016年10月28日
17002049,越前五福そば,そば、うどん,3.18,18,https://tabelog.com/ishikawa/A1701/A170101/17002049/,石川県/金沢市/畝田東/1-84,36.59147923632885,136.6148289946262,月・水・木・金・土・日/11:30 - 16:00/火/定休日,,-,～￥999,
17012097,居酒屋 海かん,居酒屋、インド料理,3.07,9,https://tabelog.com/ishikawa/A1701/A170101/17012097/,石川県/金沢市/畝田東/3-547,36.59709253713078,136.61519762584442,17:00 - 01:00/L.O. 00:00 ■ 定休日/不定休,予約可,-,～￥999,
17005043,中越 本店,和菓子、大福,3.03,13,https://tabelog.com/ishikawa/A1701/A170101/17005043/,石川県/金沢市/畝田東/2-218,36.59518123632649,136.6148114946636,月・火・木・金・土・日/10:00 - 19:00/水/定休日,,-,-,
17013847,おいけや,弁当,3.0,2,https://tabelog.com/ishikawa/A1701/A170101/17013847/,石川県/金沢市/畝田東/2-537,36.59398763632826,136.61798479464932,,,-,-,
17013112,LAWSON 金沢畝田店,コンビニ・スーパー,4.69,1,https://tabelog.com/ishikawa/A1701/A170101/17013112/,石川県/金沢市/畝田東/4-1141,36.59873205712879,136.61226330586302,24時間営業,,-,-,
17003379,よい夢,レストラン,4.51, - ,https://tabelog.com/ishikawa/A1701/A170101/17003379/,石川県/金沢市/畝田東/3-44-3,36.59619338933605,136.61424897907875,,,-,-,
17005417,タベルナ・ガッパ,イタリアン,3.26,35,https://tabelog.com/ishikawa/A1701/A170101/17005417/,石川県/金沢市/鱗町/81-1/ライラックガーデン１F,36.5564009171698,136.65660136540436,月/18:00 - 23:00/L.O. 22:00/火・水・木・金・土/12:00 - 14:30/L.O. 13:45/18:00 - 23:00/L.O. 22:00/日/定休日,予約可,-,"￥1,000～￥1,999",
17012994,肉料理 やまなか,牛料理、肉料理,3.16,15,https://tabelog.com/ishikawa/A1701/A170101/17012994/,石川県/金沢市/鱗町/116-1,36.55611987717032,136.6576574554008,18:00 - 23:00 ■ 営業時間/2部制の営業とさせて頂いております。/1部：18時～20時/2部：21時～23時/■ 定休日/不定休,予約可,"￥8,000～￥9,999",-,
17013708,petale.,カフェ、ワインバー,3.12,10,https://tabelog.com/ishikawa/A1701/A170101/17013708/,石川県/金沢市/鱗町/109-1,36.55637276717006,136.65735680540357,月・火・木・金・土・日/11:00 - 19:00/水/定休日,予約可,-,-,2021年10月
17014655,鱗町 白,日本料理,3.07,8,https://tabelog.com/ishikawa/A1701/A170101/17014655/,石川県/金沢市/鱗町/86-1/1F,36.556305356615546,136.6569350256407,月・火・水・木・金・土/18:00 - 23:00/日/定休日 ■ 日曜日定休/■その他不定休あり/■ランチ営業はお電話にて対応いたします,完全予約制,"￥15,000～￥19,999","￥10,000～￥14,999",2024年7月8日
17014473,Restaurante No²,スペイン料理,3.06,9,https://tabelog.com/ishikawa/A1701/A170101/17014473/,石川県/金沢市/鱗町/103-1/スケールポイントビル 1F,36.55664586716974,136.65689166540665,火・水・木・金・土・日/18:00 - 00:00/月/定休日,完全予約制,"￥15,000～￥19,999",-,2024年3月28日
17015160,Fu.,カフェ,3.06,8,https://tabelog.com/ishikawa/A1701/A170101/17015160/,石川県/金沢市/鱗町/117-2,36.55608693717035,136.65767599540044,11:00 - 00:00,予約可,"￥1,000～￥1,999","￥1,000～￥1,999",2025年4月21日
17015196,RUE.,ワインバー,3.03,2,https://tabelog.com/ishikawa/A1701/A170101/17015196/,石川県/金沢市/鱗町/109-1,36.55637949717005,136.65733030540363,11:00 - 18:00,,-,-,
17010896,ALTRA,ダイニングバー、イタリアン、バー,3.02,1,https://tabelog.com/ishikawa/A1701/A170101/17010896/,石川県/金沢市/鱗町/109-1/サンハイツ 1F,36.55641728716999,136.6572073554041,月・火・木・金・土/20:30 - 02:00/水・日/定休日,予約可,-,-,
17001551,金沢蒲鉾　武屋,惣菜・デリ,0.0, - ,https://tabelog.com/ishikawa/A1701/A170101/17001551/,石川県/金沢市/鱗町/100-2,36.556860777169504,136.656575845409,月・火・水・木・金・土/10:30 - 16:30/日/定休日 ■ 定休日/市場の休日,,-,-,
17015476,潤喫茶 素子,バー,0.0, - ,https://tabelog.com/ishikawa/A1701/A170101/17015476/,石川県/金沢市/鱗町/114-1/2F,36.556226337170216,136.65753589540194,月・火・木・金・土・日/20:00 - 03:00/L.O. ドリンク02:30/水/定休日,,-,-,
17013658,居酒屋はちなな,日本料理、居酒屋、海鮮,3.68,37,https://tabelog.com/ishikawa/A1701/A170101/17013658/,石川県/金沢市/駅西新町/3-16-30,36.59209573633568,136.63747419461654,月・火・木・金・土・日・祝日・祝前日・祝後日/11:30 - 14:30/18:00 - 23:00/水/定休日 ■ランチ/コースのみ/一斉スタート11:30〜または一斉スタート12時〜/■ディナー/アラカルト/18:00〜23:00(最終入店20:30、L.O22:00)/コース/一斉スタート18:00〜/一斉スタート19:30〜,予約可,"￥20,000～￥29,999","￥20,000～￥29,999",
17000162,金沢まいもん寿司 本店,回転寿司、寿司、海鮮,3.53,905,https://tabelog.com/ishikawa/A1701/A170101/17000162/,石川県/金沢市/駅西新町/3-20-7,36.59374863633406,136.63573389463443,11:00 - 21:30 ■ 定休日/不定休あり,予約不可,"￥2,000～￥2,999","￥1,000～￥1,999",
17000452,魚匠庵,寿司、海鮮、居酒屋,3.46,205,https://tabelog.com/ishikawa/A1701/A170101/17000452/,石川県/金沢市/駅西新町/3-13-17,36.59350463633416,136.63554749463214,11:00 - 14:30/L.O. 14:00/17:30 - 21:30/L.O. 21:00 ■ 定休日/不定休あり,予約可,"￥4,000～￥4,999","￥1,000～￥1,999",
17011011,ノトヒバカラ ベーカリー,パン,3.45,96,https://tabelog.com/ishikawa/A1701/A170101/17011011/,石川県/金沢市/駅西新町/3-11-9,36.59234084713982,136.63414556578311,月・水・木・金・日/08:00 - 18:00/土/07:00 - 18:00/火/定休日 ■ 定休日/不定休(SNS告知あり),予約不可,-,-,2017年12月24日
17007803,金沢かつぞう,とんかつ、海鮮、コロッケ,3.42,131,https://tabelog.com/ishikawa/A1701/A170101/17007803/,石川県/金沢市/駅西新町/3-20-12,36.59398408713945,136.63621516579826,11:00 - 15:00/L.O. 14:30/17:00 - 21:30/L.O. 21:00 ■ 定休日/不定休,予約不可,"￥1,000～￥1,999","￥1,000～￥1,999",2012年7月24日
17006637,ハグ ミトン ワークス,カフェ、ベーグル、洋菓子,3.27,81,https://tabelog.com/ishikawa/A1701/A170101/17006637/,石川県/金沢市/駅西新町/1-1-29,36.58782097714464,136.64027004573316,月・火・水・木・土・日/11:00 - 19:00/金/定休日,予約可,-,"￥1,000～￥1,999",2010年10月
17009662,ウッドスタイルカフェ,カフェ,3.21,23,https://tabelog.com/ishikawa/A1701/A170101/17009662/,石川県/金沢市/駅西新町/3-11-10,36.5924289871398,136.63424631578394,月・水・木・金・土・日/11:30 - 16:00/火/定休日 ■ 定休日/他不定休あり,予約不可,-,"￥1,000～￥1,999",2015年6月2日
17000966,都寿し,寿司,3.15,17,https://tabelog.com/ishikawa/A1701/A170101/17000966/,石川県/金沢市/駅西新町/1丁目31-28,36.59140910714228,136.63998022576962,月・木・金・土・日/11:45 - 14:00/L.O. 13:30/17:00 - 22:00/L.O. 21:30/火・水/定休日,予約可,-,"￥1,000～￥1,999",
17008302,風星,中華料理、ラーメン、食堂,3.14,28,https://tabelog.com/ishikawa/A1701/A170101/17008302/,石川県/金沢市/駅西新町/1-39-5,36.5930021271413,136.64008551578564,11:30 - 14:30/17:30 - 22:00 ■ 定休日/不定休,予約可,"￥1,000～￥1,999",～￥999,
17000004,菜香楼 新館,飲茶・点心、中華料理,3.13,40,https://tabelog.com/ishikawa/A1701/A170101/17000004/,石川県/金沢市/駅西新町/2-8-15,36.593896367141,136.6409135357941,月・火・水・金・土・日/11:00 - 15:00/17:00 - 21:00/L.O. 20:00/木/定休日,予約可,"￥3,000～￥3,999","￥1,000～￥1,999",
17001725,飛鳥,食堂,3.09,22,https://tabelog.com/ishikawa/A1701/A170101/17001725/,石川県/金沢市/駅西新町/1-13-5,36.589013387144085,136.64089197574478,火・水・木・金・土・日/11:00 - 14:00/17:30 - 22:30/月/定休日,予約可,-,～￥999,1970年11月1日
17009166,わごめ,パン,3.05,6,https://tabelog.com/ishikawa/A1701/A170101/17009166/,石川県/金沢市/駅西新町/1-4-1,36.58852089714454,136.64133651573948,月・火・水・土・日/11:30 - 16:30/木・金/定休日 ■ 営業時間/※売切次第終了/■ 定休日/他不定休,,-,～￥999,2014年6月10日
17008456,やよい軒 金沢駅西店,食堂,3.04,34,https://tabelog.com/ishikawa/A1701/A170101/17008456/,石川県/金沢市/駅西新町/3-13-6,36.59321307713943,136.63463593579158,10:00 - 23:00,予約不可,～￥999,～￥999,
17002740,いなかや善助,居酒屋,3.04,7,https://tabelog.com/ishikawa/A1701/A170101/17002740/,石川県/金沢市/駅西新町/1-15-2,36.58876556714385,136.63965379574313,月・火・水・木・金/11:30 - 14:00/17:00 - 23:00/土/17:00 - 23:00/日/定休日,,-,-,
17012060,スシロー 金沢駅西店,回転寿司,3.02,19,https://tabelog.com/ishikawa/A1701/A170101/17012060/,石川県/金沢市/駅西新町/3-1-2,36.5896495071413,136.63344085575642,月・火・水・木・金/11:00 - 23:00/L.O. 22:30/土・日・祝日/10:30 - 23:00/L.O. 22:30,予約可,"￥2,000～￥2,999","￥1,000～￥1,999",2020年2月6日
17015599,ROUTE 8 CAFE,カフェ,3.02,4,https://tabelog.com/ishikawa/A1701/A170101/17015599/,石川県/金沢市/駅西新町/2-3-13,36.59495403713951,136.6383586958066,,,-,-,2025年11月21日
17005002,アプレシオ 金沢駅西店,その他,3.01,4,https://tabelog.com/ishikawa/A1701/A170101/17005002/,石川県/金沢市/駅西新町/3-14-21,36.59283598713991,136.63538161578722,24時間営業,,-,-,
17009034,本家かまどや 金沢駅西店,弁当,3.0,2,https://tabelog.com/ishikawa/A1701/A170101/17009034/,石川県/金沢市/駅西新町/3-16-30,36.592170287141016,136.637543175779,09:30 - 21:50 ■ 定休日/無休(年末年始のみ休み),,-,-,
17013789,Rainbow Cafe マライカBAZAAR金沢店,カフェ,0.0,1,https://tabelog.com/ishikawa/A1701/A170101/17013789/,石川県/金沢市/駅西新町/2-12-9/マライカBAZAAR,36.59529170007567,136.63898501071372,11:00 - 19:00,,-,-,
17003837,味蘭,中華料理,3.18,37,https://tabelog.com/ishikawa/A1701/A170101/17003837/,石川県/金沢市/駅西本町/1-3-22,36.57956813634359,136.6373852944901,月・火・木・金・土・日/11:30 - 14:30/17:00 - 22:00/水/定休日,予約可,"￥1,000～￥1,999",～￥999,
17003141,翔,中華料理,3.15,27,https://tabelog.com/ishikawa/A1701/A170101/17003141/,石川県/金沢市/駅西本町/2-5-7,36.58092343634208,136.6353203945052,月・火・水・木・金・土/12:00 - 15:00/18:00 - 21:00/日・祝日/定休日,,-,～￥999,
17002343,魚菜,寿司、海鮮、居酒屋,3.14,19,https://tabelog.com/ishikawa/A1701/A170101/17002343/,石川県/金沢市/駅西本町/3-19-23,36.58319069670283,136.63466370452784,月・火・水・木・金/11:30 - 13:30/17:30 - 23:00/土/17:30 - 23:00/日・祝日/定休日,予約可,-,～￥999,
17009422,グッドフォーライフサンロクカフェ,カフェ,3.13,19,https://tabelog.com/ishikawa/A1701/A170101/17009422/,石川県/金沢市/駅西本町/5-1-36,36.5821879771456,136.6320081556821,火・水・木・金・土/10:00 - 21:00/日/10:00 - 20:00/月/定休日,,-,～￥999,
17014869,六月の舟歌,パン,3.1,8,https://tabelog.com/ishikawa/A1701/A170101/17014869/,石川県/金沢市/駅西本町/1-1007,36.58031390714926,136.6397918056577,水・金・土/10:30 - 17:30/月・火・木・日/定休日 売り切れ次第終了,,-,-,2024年10月16日
17008931,福満楼,中華料理,3.09,23,https://tabelog.com/ishikawa/A1701/A170101/17008931/,石川県/金沢市/駅西本町/6-3-14,36.584902917141946,136.62598067571372,,予約不可,"￥1,000～￥1,999",-,2014年4月14日
17005643,８番らーめん 駅西本町店,ラーメン,3.07,94,https://tabelog.com/ishikawa/A1701/A170101/17005643/,石川県/金沢市/駅西本町/2-102,36.57972640714861,136.636603635654,10:30 - 00:30/L.O. 00:00,予約可,"￥1,000～￥1,999","￥1,000～￥1,999",
17000682,焼肉飯場 円蔵,焼肉,3.06,12,https://tabelog.com/ishikawa/A1701/A170101/17000682/,石川県/金沢市/駅西本町/2-1-28,36.58036548714789,136.63561877566113,月・火・木・金・土・日/17:00 - 00:00/水/定休日,予約可,-,-,
17008233,Restaurant & Bar INDIGO,ヨーロッパ料理、ダイニングバー,3.06,11,https://tabelog.com/ishikawa/A1701/A170101/17008233/,石川県/金沢市/駅西本町/3-15-47,36.58105363634181,136.63474819450695,月・火・水・木・金・土/18:00 - 23:00/L.O. 料理22:00 ドリンク22:30/日・祝日/17:00 - 22:00/L.O. 料理21:00 ドリンク21:30 ■ 定休日/只今の期間はウェディングや団体の貸切りのみの営業となっております,予約可,"￥3,000～￥3,999",-,2012年10月17日
17014715,ラー麺 ずんどう屋 金沢駅西本町店,ラーメン,3.05,49,https://tabelog.com/ishikawa/A1701/A170101/17014715/,石川県/金沢市/駅西本町/5-2-17,36.58338418856175,136.62902138643528,11:00 - 00:00,予約不可,"￥1,000～￥1,999","￥1,000～￥1,999",2024年7月26日
17006146,なか卯 金沢駅西本町店,牛丼、親子丼、うどん,3.03,24,https://tabelog.com/ishikawa/A1701/A170101/17006146/,石川県/金沢市/駅西本町/5-1-3,36.58184173634051,136.63220589451666,24時間営業,予約不可,～￥999,～￥999,2009年10月9日
17009585,すき家 金沢駅西店,牛丼、カレー、食堂,3.03,11,https://tabelog.com/ishikawa/A1701/A170101/17009585/,石川県/金沢市/駅西本町/6-3-7,36.58446323633712,136.6268069945469,■ 営業時間/http://maps.sukiya.jp/p/zen004/dtl/ID0100392/?&cond1=1&cond2=1&&his=sw/■定休日/無休,,-,-,
17001878,大昌苑,焼肉,3.03,3,https://tabelog.com/ishikawa/A1701/A170101/17001878/,石川県/金沢市/駅西本町/1-5-3,36.57934145714948,136.63853063564878,,,-,-,
17010313,ドミノ・ピザ 金沢駅西本町店,ピザ,3.01,8,https://tabelog.com/ishikawa/A1701/A170101/17010313/,石川県/金沢市/駅西本町/3-14-24/オネストビル,36.58506207714539,136.63709334570754,11:00 - 00:00,予約可,-,-,
17009327,ピザハット イオンタウン金沢駅西本町店,ピザ,3.01,4,https://tabelog.com/ishikawa/A1701/A170101/17009327/,石川県/金沢市/駅西本町/5-2-13,36.58395263714374,136.62970094570153,10:00 - 22:00,予約可,"￥5,000～￥5,999","￥5,000～￥5,999",
17011507,マックスバリュ 金沢駅西本町店,コンビニ・スーパー,3.0,2,https://tabelog.com/ishikawa/A1701/A170101/17011507/,石川県/金沢市/駅西本町/5-2-13,36.583991827143706,136.62967237570194,24時間営業,,-,-,
17013497,チョアチキン 金沢店,韓国料理,0.0,2,https://tabelog.com/ishikawa/A1701/A170101/17013497/,石川県/金沢市/駅西本町/2-12-22,36.58349548714678,136.63834875569086,月・火・水・金・土・日/11:00 - 22:00/木/定休日,予約可,-,-,
17013696,ニクスポット 金沢駅西店,その他,0.0,1,https://tabelog.com/ishikawa/A1701/A170101/17013696/,石川県/金沢市/駅西本町/2-12-22/パストけやき 1F,36.583427122248914,136.63821006578408,■ 営業時間/24時間営業。,,-,-,
17002961,ラブート,喫茶店,0.0, - ,https://tabelog.com/ishikawa/A1701/A170101/17002961/,石川県/金沢市/駅西本町/2-12-47,36.58251963634248,136.63973689451822,,,-,-,
17012898,BREMEN,パン,3.08,9,https://tabelog.com/ishikawa/A1701/A170101/17012898/,石川県/金沢市/円光寺/2-10-15,36.5320758264317,136.6471444658682,月/10:30 - 13:30/火・水/10:30 - 16:00/木・金・土/11:30 - 16:00/日/定休日,,-,～￥999,2021年7月7日
17007212,ジャーマンベーカリー サンピア店,パン、サンドイッチ,3.01,7,https://tabelog.com/ishikawa/A1701/A170101/17007212/,石川県/金沢市/円光寺/2-345/サンピア泉が丘,36.53451938718141,136.6493886751884,10:00 - 19:00 ■ 定休日/元日,,-,-,
17005036,清水甘味堂,和菓子,3.01,1,https://tabelog.com/ishikawa/A1701/A170101/17005036/,石川県/金沢市/円光寺/3-3-5,36.53280267718173,136.64696185517275,月・火・木・金・土・日/10:00 - 19:00/水/定休日,,-,～￥999,
17007743,芝寿司 サンピア店,寿司,3.0,6,https://tabelog.com/ishikawa/A1701/A170101/17007743/,石川県/金沢市/円光寺/2-345/伏見新町チューリップ 1F,36.53449717718146,136.64951081518808,09:30 - 18:30 ■ 定休日/サンピア泉が丘の休館日に準ずる,予約可,-,-,
17011391,金沢ブルワリー,その他,0.0,1,https://tabelog.com/ishikawa/A1701/A170101/17011391/,石川県/金沢市/円光寺/3-1-5,36.53416502718093,136.64720940518637,,,-,-,
17012317,木もれび,カフェ,0.0, - ,https://tabelog.com/ishikawa/A1701/A170101/17012317/,石川県/金沢市/円光寺/1-19-23,36.53247984718343,136.65170671516617,月・火・水・金・土・日/10:00 - 16:00/木/定休日 ■ 定休日/不定休,,-,～￥999,2020年7月
17014419,奈々,居酒屋,0.0, - ,https://tabelog.com/ishikawa/A1701/A170101/17014419/,石川県/金沢市/円光寺/3-3-3,36.53293411718166,136.64703460517404,17:30 - 23:00,,-,-,
17012706,音SPOT cafe&bar Jam,カフェ,0.0, - ,https://tabelog.com/ishikawa/A1702/A170203/17012706/,石川県/金沢市/円光寺/3-21-39/EXTREME内,36.53471853637448,136.64488979403177,12:00 - 20:00,,-,-,
17013150,日々響,おにぎり,0.0, - ,https://tabelog.com/ishikawa/A1701/A170101/17013150/,石川県/金沢市/円光寺/2-6-9,36.53256833637672,136.64765769400813,月・火・水・木・土・日/11:00 - 18:00/金/定休日,,-,～￥999,2021年11月12日
17006185,イルフェボウ,カフェ,0.0, - ,https://tabelog.com/ishikawa/A1701/A170101/17006185/,石川県/金沢市/円光寺/3-3-5,36.53279130207252,136.64695056014153,月・火・木・金・土・日/11:30 - 19:00/水/定休日 ■ 定休日/水曜（祝日は営業）,,-,-,
17000291,魚がし寿司,寿司,3.15,16,https://tabelog.com/ishikawa/A1701/A170101/17000291/,石川県/金沢市/扇町/3-7,36.56196089717014,136.66873349545205,月・火・水・金・土・日/11:30 - 23:00/木/定休日,予約可,"￥8,000～￥9,999","￥8,000～￥9,999",
17004472,銀時計,喫茶店,3.01,1,https://tabelog.com/ishikawa/A1701/A170101/17004472/,石川県/金沢市/扇町/15-13,36.56347894716934,136.669242505467,,,-,-,
17009411,坂緑香園,その他,3.01,1,https://tabelog.com/ishikawa/A1701/A170101/17009411/,石川県/金沢市/扇町/8-68,36.5617393971704,136.6691127954495,07:00 - 19:00,,-,-,
17003818,末広,居酒屋,4.69, - ,https://tabelog.com/ishikawa/A1701/A170101/17003818/,石川県/金沢市/扇町/13-27,36.56304176958294,136.66812074250652,■定休日/木曜日,,-,-,
17008096,金澤やまぎし養蜂場 大桑店,オーガニック、スイーツ、洋菓子,3.08,21,https://tabelog.com/ishikawa/A1701/A170101/17008096/,石川県/金沢市/大桑/2-380,36.53538102718922,136.6756572151787,月・水・木・金・土/11:00 - 18:00/L.O. 17:30/火・日/定休日 ■ 営業時間/1F店舗(10:00～19:00)/■ 定休日/1F店舗 火曜定休日,,-,"￥1,000～￥1,999",
17013781,cafe Musee,カフェ,3.06,5,https://tabelog.com/ishikawa/A1701/A170101/17013781/,石川県/金沢市/大桑/3-56,36.535887097189175,136.67654175518317,月・火・水・金・土・日/10:00 - 18:00/L.O. 料理17:00/木/定休日,,-,"￥1,000～￥1,999",2022年11月16日
17005748,MERRY,洋菓子,3.04,5,https://tabelog.com/ishikawa/A1701/A170101/17005748/,石川県/金沢市/大桑/2-375,36.5353676363838,136.67549089401686,10:00 - 18:00,,-,-,
17006903,スターバックスコーヒー 金沢大桑店,カフェ,3.03,26,https://tabelog.com/ishikawa/A1701/A170101/17006903/,石川県/金沢市/大桑/2-394,36.53470347718972,136.67589501517168,08:00 - 23:00 ■ 定休日/不定休,予約不可,～￥999,～￥999,
17005564,楽ちんの湯　お食事処,食堂,3.03,4,https://tabelog.com/ishikawa/A1701/A170101/17005564/,石川県/金沢市/大桑/2丁目115番地,36.53705729718797,136.67505033519603,11:00 - 14:00/17:00 - 22:00,予約可,-,-,2009年12月7日
17002476,すき家 金沢大桑店,牛丼、カレー、食堂,3.02,13,https://tabelog.com/ishikawa/A1701/A170101/17002476/,石川県/金沢市/大桑/第三土地区画整理事業施工地内16-2街区8,36.53575704790272,136.67600439956385,■ 営業時間/http://maps.sukiya.jp/p/zen004/dtl/ID0100741/?&cond1=1&cond2=1&&his=sw/■定休日/年中無休,,～￥999,-,
17010761,みつばちかふぇ,カフェ、パンケーキ、オーガニック,3.01,4,https://tabelog.com/ishikawa/A1701/A170101/17010761/,石川県/金沢市/大桑/2-380/2F,36.53538177718922,136.6756561051787,10:00 - 19:00/L.O. 料理18:00 ■ 営業時間/1F はちみつ販売店「みつばちの詩工房」(10:00～19:00)/2F カフェ「みつばちかふぇ」/■定休日/年末年始,予約可,-,-,
17005915,たこ沢,たこ焼き,3.0,1,https://tabelog.com/ishikawa/A1701/A170101/17005915/,石川県/金沢市/大桑/3-176/KaBoS大桑店敷地内,36.52669238178476,136.6873199882701,■ 営業時間/11:00～/月曜のみの営業になります。,,-,-,
17012239,金澤やまぎし養蜂場 大桑店,その他,0.0, - ,https://tabelog.com/ishikawa/A1701/A170101/17012239/,石川県/金沢市/大桑/2-380,36.53537993718923,136.67565652517868,10:00 - 19:00 ■ 定休日/無休(年末年始除く),,-,-,
17012809,スーパーマーケット バロー 大桑店,コンビニ・スーパー,0.0, - ,https://tabelog.com/ishikawa/A1701/A170101/17012809/,石川県/金沢市/大桑/3-114,36.53461168719025,136.6773577251697,,,-,-,
17000053,シェ・ヌゥ,フレンチ,3.6,61,https://tabelog.com/ishikawa/A1701/A170101/17000053/,石川県/金沢市/大桑町/カ392,36.527618237198304,136.68866769509117,月・水・木・金・土・日・祝日・祝前日/11:30 - 15:00/L.O. 料理13:00 ドリンク13:30/18:30 - 22:00/L.O. 料理20:00 ドリンク21:00/火/定休日 ■ 営業時間/11:30〜15:00(要予約)/18:30〜22:00(要予約)/■ 定休日/火曜/■支払いに関しまして/団体様の場合は現金でのお支払いをお願いしております。,予約可,"￥8,000～￥9,999","￥5,000～￥5,999",
17002287,北欧倶楽部 バロー大桑店,パン、サンドイッチ、ベーグル,3.05,7,https://tabelog.com/ishikawa/A1701/A170101/17002287/,石川県/金沢市/大桑町/ニ20街区1/バロー大桑 1F,36.53524239778647,136.676981008818,10:00 - 22:00 ■ 定休日/不定休,,-,-,
17015444,手打ちそば 傳-DEN-,そば,3.04,4,https://tabelog.com/ishikawa/A1701/A170101/17015444/,石川県/金沢市/大桑町/ナ25/花里ゴルフ,36.54222733718471,136.67512317524822,月・火・木・金・土・日/11:00 - 15:00/L.O. 料理14:30/17:00 - 21:00/L.O. 料理20:00/水/定休日,予約可,-,-,2025年8月1日
17000461,めん房 本陣 大桑店,うどん、そば、鍋,3.02,22,https://tabelog.com/ishikawa/A1701/A170101/17000461/,石川県/金沢市/大桑町/第3土地区画整理地12街区,36.53768465718763,136.6752627752022,月・火・水・木・金/11:00 - 15:30/L.O. 15:00/17:30 - 20:00/L.O. 19:30/土・日/11:00 - 20:00/L.O. 19:30 ■ 定休日/1月1日,予約可,"￥1,000～￥1,999",～￥999,
17000768,ココス 金沢大桑店,ファミレス,3.01,12,https://tabelog.com/ishikawa/A1701/A170101/17000768/,石川県/金沢市/大桑町/ニ2街区1-1,36.53785485673656,136.6747255203007,10:00 - 00:00 ■定休日/年中無休,,"￥1,000～￥1,999",～￥999,
17002735,おやつ村 バロー大桑店,お好み焼き、たい焼き・大判焼き、焼きそば,3.01,6,https://tabelog.com/ishikawa/A1701/A170101/17002735/,石川県/金沢市/大桑町/ニ20街区1/バロー大桑店,36.53534600044082,136.6771312693468,,,-,～￥999,
17003896,能登牛焼肉 味道苑 大手町店,焼肉、ホルモン,3.37,85,https://tabelog.com/ishikawa/A1701/A170101/17003896/,石川県/金沢市/大手町/15-24,36.56955101716285,136.66096448553415,火・水・木・金・土・日/17:00 - 23:00/月/定休日 ■ 定休日/月曜日（祝日の場合は翌日）,予約可,"￥4,000～￥4,999",-,1970年
17009102,馬数,日本料理、居酒屋、創作料理,3.3,54,https://tabelog.com/ishikawa/A1701/A170101/17009102/,石川県/金沢市/大手町/15-11/大手町ハイム 1F,36.56990263635699,136.6601047943765,月・火・水・木・金/11:30 - 13:00/18:00 - 22:00/土/18:00 - 22:00/日・祝日/定休日,予約可,"￥5,000～￥5,999","￥1,000～￥1,999",2014年7月22日
17006809,加賀藩御用菓子司 森八 本店,和菓子、甘味処、カフェ,3.23,299,https://tabelog.com/ishikawa/A1701/A170101/17006809/,石川県/金沢市/大手町/10-15,36.56945303635847,136.66389779436932,月・火・水・木・金・土・日・祝日・祝前日・祝後日/09:00 - 18:00 ■ 定休日/元旦、1月2日,予約可,-,～￥999,2011年2月7日
17013318,UNFINI,チョコレート,3.23,33,https://tabelog.com/ishikawa/A1701/A170101/17013318/,石川県/金沢市/大手町/9-20/大手町ビル 1F,36.56860553635904,136.66403819436067,,,-,-,2022年3月24日
17011232,日本料理 嬉ぐ,日本料理,3.17,15,https://tabelog.com/ishikawa/A1701/A170101/17011232/,石川県/金沢市/大手町/2-25/レジデンス大手門 1F,36.56883695716324,136.66076935552704,月・火・木・金・土・日/11:30 - 14:30/17:30 - 21:30/水/定休日,予約可,"￥5,000～￥5,999","￥1,000～￥1,999",2016年9月1日
17007834,マシマシ,パン,3.11,17,https://tabelog.com/ishikawa/A1701/A170101/17007834/,石川県/金沢市/大手町/2-25/レジデンス大手門 102,36.568930707163176,136.660784795528,火・水・木・金/08:00 - 18:30/土・祝日/08:00 - 17:00/月・日/定休日,,-,-,2012年
17002898,すとっく,喫茶店,3.08,10,https://tabelog.com/ishikawa/A1701/A170101/17002898/,石川県/金沢市/大手町/15-14,36.56991323716243,136.66039831553817,月・水・金/11:00 - 13:30/17:30 - 20:30/火・木・土・日/11:00 - 13:30 ■ 営業時間/11:00～13:30/17:30～20:30（夜は月、水、金のみ）,予約不可,-,～￥999,
17004513,竹屋,カフェ,3.06,8,https://tabelog.com/ishikawa/A1701/A170101/17004513/,石川県/金沢市/大手町/6-1,36.56703940716511,136.6630838555073,火・水・木・金/10:00 - 17:30/月・土・日・祝日/定休日 ■ 営業時間/※ランチは12:00～14:00,予約可,-,"￥1,000～￥1,999",
17015478,OTAS,カフェ,3.06,5,https://tabelog.com/ishikawa/A1701/A170101/17015478/,石川県/金沢市/大手町/1-6,36.56959423716212,136.65881289553607,月・火・水・木・土・日/08:00 - 16:00/金/定休日,予約不可,-,-,
17008058,KKRホテル 金沢,ホテル,3.05,8,https://tabelog.com/ishikawa/A1701/A170101/17008058/,石川県/金沢市/大手町/2-32,36.568838287163125,136.6604321355273,■ 営業時間/チェックイン15:00 チェックアウト翌11:00/AM7:00～9:00,予約可,-,-,
17009021,ロサンゼルス,カフェ,3.04,7,https://tabelog.com/ishikawa/A1701/A170101/17009021/,石川県/金沢市/大手町/2-25,36.56888523716313,136.66071279552773,月・木/10:00 - 16:00/火・水・金・土/10:00 - 17:00/日/定休日,,-,-,
17001475,KKRホテル金沢 アイビス,フレンチ、洋食、イタリアン,3.03,20,https://tabelog.com/ishikawa/A1701/A170101/17001475/,石川県/金沢市/大手町/2-32/KKRホテル金沢 2F,36.56922291455842,136.66020139339437,月・火・水・木・金・土・日・祝日・祝前日・祝後日/07:00 - 09:30/L.O. 料理09:00/11:30 - 14:30/L.O. 料理14:00/18:00 - 21:00/L.O. 料理20:30,予約可,"￥4,000～￥4,999","￥1,000～￥1,999",
17009039,寺島蔵人邸,その他,3.03,3,https://tabelog.com/ishikawa/A1701/A170101/17009039/,石川県/金沢市/大手町/10-3/茶室,36.56929742716382,136.66354410552972,月・水・木・金・土・日・祝日・祝前日・祝後日/09:30 - 17:00/火/定休日 ■ 営業時間/9時30分～17時まで(入館は16時30分まで)/■ 定休日/年末年始（12月29日～1月3日）/※臨時休館有り（お問い合わせ下さい）,,-,-,
17015616,セブンイレブン 金沢大手町店,コンビニ・スーパー,0.0,1,https://tabelog.com/ishikawa/A1701/A170101/17015616/,石川県/金沢市/大手町/173,36.569319337162696,136.66004089553243,,,-,-,
17010109,まかないこすめ 蔵のある金沢本店,カフェ,0.0, - ,https://tabelog.com/ishikawa/A1701/A170101/17010109/,石川県/金沢市/大手町/11-29,36.56859153635886,136.66343829436093,10:00 - 17:00 ■ 定休日/不定休,予約可,-,～￥999,2016年4月15日
17013428,金の獅子,カフェ、バー,0.0, - ,https://tabelog.com/ishikawa/A1701/A170101/17013428/,石川県/金沢市/大手町/9-19,36.56885975716427,136.66408237552497,月・火・水・木・金/11:30 - 22:00/土・日/定休日 ■ 営業時間/※土曜日は予約営業,,-,～￥999,
17002751,はる菜,居酒屋,0.0, - ,https://tabelog.com/ishikawa/A1701/A170101/17002751/,石川県/金沢市/大手町/2-25,36.56892489996114,136.660721363932,,,-,-,
17009812,清和堂 遠藤屋茶舗,カフェ,0.0, - ,https://tabelog.com/ishikawa/A1701/A170101/17009812/,石川県/金沢市/大手町/15-15,36.569876460083286,136.66044856499846,,,-,-,
17009722,やきにく 山こし,焼肉,3.22,17,https://tabelog.com/ishikawa/A1701/A170101/17009722/,石川県/金沢市/大友/2-29,36.60206943632577,136.62629519472512,,予約可,"￥4,000～￥4,999",-,
17006177,金沢焼肉 獅子丸,焼肉、居酒屋、ホルモン,3.19,54,https://tabelog.com/ishikawa/A1701/A170101/17006177/,石川県/金沢市/大友/2-100,36.60131728713173,136.62661877587908,月・火・水・金・土・日/17:00 - 23:00/L.O. 22:30/木/定休日,予約可,"￥4,000～￥4,999",-,2010年3月20日
17015075,DINING PUZZLE,弁当,3.05,4,https://tabelog.com/ishikawa/A1701/A170101/17015075/,石川県/金沢市/大友/1-11,36.60172386713203,136.62837753588195,月・火・水・金・土・日/11:00 - 15:00/18:00 - 22:00/木/11:00 - 15:00,予約可,-,-,2025年2月15日
17014793,たい夢 大友店,たい焼き・大判焼き,3.01,4,https://tabelog.com/ishikawa/A1701/A170101/17014793/,石川県/金沢市/大友/2-248,36.60334096713168,136.63051304589678,火・水・木・金・土・日/11:00 - 19:00/月/定休日,,-,-,
17009436,アルビス ベーカリー 大友店,パン,3.01,1,https://tabelog.com/ishikawa/A1701/A170101/17009436/,石川県/金沢市/大友町/13街区1,36.603024637131455,136.62915539589457,月・火・水・木・金/10:00 - 22:00/土・日・祝日/09:00 - 22:00,,-,-,
17006612,元喜家 金沢店,ラーメン、つけ麺,3.39,113,https://tabelog.com/ishikawa/A1701/A170101/17006612/,石川県/金沢市/大額/3-256,36.5138512071868,136.62512988499662,11:00 - 21:00 ■ 定休日/不定休,予約不可,～￥999,"￥1,000～￥1,999",2010年11月29日
17001313,らーめん専門店 真打,ラーメン、つけ麺,3.38,112,https://tabelog.com/ishikawa/A1701/A170101/17001313/,石川県/金沢市/大額/3-184,36.51284253638119,136.62237529382662,月・火・木・金・土/09:00 - 14:30/水・日・祝日/定休日,予約不可,～￥999,"￥1,000～￥1,999",
17001915,はせ川,焼肉,3.31,55,https://tabelog.com/ishikawa/A1701/A170101/17001915/,石川県/金沢市/大額/1-19,36.51612270718373,136.62001593502313,火・水・木・金・土・日/17:00 - 21:30/月/定休日,予約可,"￥6,000～￥7,999",-,
17011182,ロコズ キッチン ブリック ハウス,ハワイ料理、カフェ,3.24,25,https://tabelog.com/ishikawa/A1701/A170101/17011182/,石川県/金沢市/大額/3-253,36.51344770718699,136.62489594499272,火・水・木・金・土・日/11:00 - 15:00/18:00 - 21:00/月/定休日,予約可,"￥1,000～￥1,999","￥1,000～￥1,999",2018年4月9日
17002075,藤七,うどん、そば、丼,3.2,23,https://tabelog.com/ishikawa/A1701/A170101/17002075/,石川県/金沢市/大額/3-167,36.513169177186974,136.62429759499034,月・水・木・金・土・日/11:30 - 21:00/火/定休日 【定休日】/毎週火曜、第二水曜日,予約不可,～￥999,～￥999,
17001559,可貴,うどん、そば、丼,3.19,22,https://tabelog.com/ishikawa/A1701/A170101/17001559/,石川県/金沢市/大額/1丁目420-2,36.51290783637965,136.61763449383056,月・火・水・金・土・日/11:00 - 15:00/17:30 - 21:00/木/定休日 ■ 定休日/木曜日(休日の場合は翌日),,-,～￥999,
17000314,タベルナ・ピノリ 金沢店,イタリアン、ピザ,3.18,27,https://tabelog.com/ishikawa/A1701/A170101/17000314/,石川県/金沢市/大額/2-38,36.51601641718568,136.62590566501797,11:30 - 14:30/17:30 - 22:00 不定休あり,予約可,-,"￥1,000～￥1,999",
17012245,パティスリー マシマ,ケーキ、洋菓子,3.18,17,https://tabelog.com/ishikawa/A1701/A170101/17012245/,石川県/金沢市/大額/3-267,36.51497603718622,136.6255453250077,火・水・木・金・土・日/10:00 - 18:00/月/定休日 ■ 営業時間/なくなり次第終了/■ 定休日/第2・4火曜日 不定休,予約可,-,"￥1,000～￥1,999",2020年5月23日
17002875,カフェ コンディトライ ワイー,喫茶店、カフェ、ケーキ,3.07,15,https://tabelog.com/ishikawa/A1701/A170101/17002875/,石川県/金沢市/大額/3-182,36.51281304718665,136.62258787498791,月・木・金・土・日/09:00 - 18:00/L.O. 17:00/火・水/定休日,予約不可,-,"￥1,000～￥1,999",
17004776,ひで華 大額店,焼肉,3.06,11,https://tabelog.com/ishikawa/A1701/A170101/17004776/,石川県/金沢市/大額/1-291,36.51284334718616,136.62110486498926,火・水・木・金・土・日/17:00 - 22:30/月/定休日,予約可,"￥2,000～￥2,999",-,
17013834,ひなた食堂,食堂、パン、弁当,3.06,9,https://tabelog.com/ishikawa/A1701/A170101/17013834/,石川県/金沢市/大額/3-190,36.51244192718678,136.62224852498443,火・水・木・金・土・日/11:00 - 17:00/月/定休日 ■ 営業時間/11:00～17:00頃、または売り切れまで (ランチ15:00まで、L.O14:00)/■ 定休日/月曜日、第2・4・５日曜日,予約可,-,"￥1,000～￥1,999",2023年2月23日
17004303,ジョイ・ハウス,喫茶店,3.04,4,https://tabelog.com/ishikawa/A1701/A170101/17004303/,石川県/金沢市/大額/3-255,36.5136496363815,136.62495389383292,09:00 - 11:00 ■ 営業時間/モーニングは9:00～11:00,,-,～￥999,
17004080,たこやき太郎 光ケ丘店,たこ焼き,3.0,1,https://tabelog.com/ishikawa/A1701/A170101/17004080/,石川県/金沢市/大額/2-55,36.51635898718534,136.62553730502168,,,-,-,
17003527,だんち,レストラン,0.0,1,https://tabelog.com/ishikawa/A1701/A170101/17003527/,石川県/金沢市/大額/1-17,36.51593074718375,136.61967560502146,,,-,-,
17015217,コープおおぬか,コンビニ・スーパー,0.0, - ,https://tabelog.com/ishikawa/A1701/A170101/17015217/,石川県/金沢市/大額/2-50,36.517266717184825,136.6257423650307,09:30 - 21:00,,-,-,
17001827,餃子コレクション,ラーメン,0.0, - ,https://tabelog.com/ishikawa/A1701/A170101/17001827/,石川県/金沢市/大額/1-12-2,36.514641097961054,136.61973007869022,,,-,-,
17004177,イルカ,喫茶店,0.0, - ,https://tabelog.com/ishikawa/A1701/A170101/17004177/,石川県/金沢市/大額/3-141-1,36.51377813638129,136.62454879383455,,,-,-,
17012216,味処 名舩,日本料理,0.0, - ,https://tabelog.com/ishikawa/A1701/A170101/17012216/,石川県/金沢市/大額/2-138,36.516797167184976,136.6252560650263,■定休日/月曜日,,-,-,
17014080,然れど,レストラン、カフェ,3.16,14,https://tabelog.com/ishikawa/A1701/A170101/17014080/,石川県/金沢市/大額町/ル1-1,36.51459118718831,136.63134101499975,火・水・木・金・土/11:00 - 17:30/L.O. 17:00/日/10:00 - 17:30/L.O. 17:00/月/定休日 火～土/ランチ 11:00~/13:00~の二部制/カフェ 14:30~,予約可,-,"￥2,000～￥2,999",2023年7月10日
17002800,クローバー,レストラン,3.08,21,https://tabelog.com/ishikawa/A1701/A170101/17002800/,石川県/金沢市/大額町/ル8/金沢国際ホテル　１Ｆ,36.51395109799255,136.63121856745235,07:00 - 09:30/11:30 - 15:00/17:30 - 21:30,予約可,-,"￥1,000～￥1,999",
17009066,加能,日本料理、郷土料理,3.05,6,https://tabelog.com/ishikawa/A1701/A170101/17009066/,石川県/金沢市/大額町/ル8/金沢国際ホテル 8F,36.51386169674715,136.63108754895953,月・火・水・木・金・土/11:30 - 15:00/L.O. 14:30/17:30 - 22:00/L.O. 21:00/日・祝日/11:30 - 15:00/L.O. 14:30/17:00 - 22:00/L.O. 21:00,予約可,"￥6,000～￥7,999",-,2014年7月1日
17009067,鉄板焼 高尾,鉄板焼き、ステーキ,3.02,4,https://tabelog.com/ishikawa/A1701/A170101/17009067/,石川県/金沢市/大額町/ル8/金沢国際ホテル,36.51294766350233,136.6316132619169,月・火・水・木・金・土/11:30 - 15:00/L.O. 14:30/17:30 - 22:00/L.O. 21:00/日/11:30 - 15:00/L.O. 14:30/17:00 - 22:00/L.O. 21:00,予約可,-,-,2014年7月1日
17009069,マルメロ,ケーキ、パン,3.01,1,https://tabelog.com/ishikawa/A1701/A170101/17009069/,石川県/金沢市/大額町/ル8/金沢国際ホテル,36.51364534718881,136.6310276249904,10:00 - 19:00,,-,-,2014年7月14日
17008053,金沢国際ホテル,ホテル,3.0,6,https://tabelog.com/ishikawa/A1701/A170101/17008053/,石川県/金沢市/大額町/ル8,36.51387010718872,136.6311583749926,■ 営業時間/チェックイン14:00 チェックアウト翌11:00/■定休日/年中無休,,-,-,
17000680,ロビーラウンジ,バー,4.69, - ,https://tabelog.com/ishikawa/A1701/A170101/17000680/,石川県/金沢市/大額町/ル8/金沢国際ホテル,36.51387198718872,136.63116014499263,07:00 - 10:00/11:00 - 15:00/17:30 - 22:00,,-,-,
17000018,宝生寿し,寿司、日本料理、鍋,3.47,253,https://tabelog.com/ishikawa/A1701/A170101/17000018/,石川県/金沢市/大野町/4-72,36.612995536312255,136.60564119484994,月・火・木・金・土・日/11:00 - 22:00/水/定休日 ■ 定休日/水曜日（祝日の場合営業、翌日休）,予約可,"￥4,000～￥4,999","￥1,000～￥1,999",
17012654,こめトはな,ケーキ,3.37,60,https://tabelog.com/ishikawa/A1701/A170101/17012654/,石川県/金沢市/大野町/4-イ170/ヤマト醤油味噌 糀パーク,36.6136144807966,136.60822811034583,月・火・木・金・土・日/10:00 - 16:30/水/定休日 ■ 営業時間/※完売次第終了/■ 定休日/年末年始,予約不可,-,"￥1,000～￥1,999",2021年3月6日
17000669,弁吉,居酒屋、かに,3.36,93,https://tabelog.com/ishikawa/A1701/A170101/17000669/,石川県/金沢市/大野町/5-7,36.61168668711737,136.6022233560009,月・火・木・金・土・日/11:00 - 14:00/17:00 - 22:00/水/定休日 ■ 定休日/年末年始,完全予約制,"￥8,000～￥9,999","￥6,000～￥7,999",
17007902,発酵食美人食堂,食堂、オーガニック、喫茶店,3.36,83,https://tabelog.com/ishikawa/A1701/A170102/17007902/,石川県/金沢市/大野町/4-イ170/(株)ヤマト醤油味噌本社工場・百年蔵,36.6135261071179,136.60754863601574,月・木・金・土・日/11:30 - 16:00/火/10:30 - 16:00/L.O. 15:45/水/定休日 ■ 営業時間/[木～月] ＊発酵食美人ランチの日・ご予約制/11：30～14：30 発酵食美人ランチ （ラストオーダー13：30）/13：30～14：30 玄米甘酒カレーのみご提供/14：30～16：00 カフェタイム（ラストオーダ/[火] ＊味噌汁定食の日・ご予約不要/テイクアウトは朝10:00～16:00まで。/■ 定休日/年末年始,完全予約制,-,"￥1,000～￥1,999",
17009278,大野湊食堂,ラーメン,3.32,76,https://tabelog.com/ishikawa/A1701/A170101/17009278/,石川県/金沢市/大野町/4-125,36.61328229711758,136.60605501601435,火・水・木・金・土・日/11:30 - 14:00/17:30 - 21:00/月/定休日,予約不可,-,"￥1,000～￥1,999",2014年11月1日
17001053,ひしほ蔵,カフェ、ジェラート・アイスクリーム、惣菜・デリ,3.26,56,https://tabelog.com/ishikawa/A1701/A170102/17001053/,石川県/金沢市/大野町/4丁目イ170,36.61346809994776,136.60779204218974,月・火・木・金・土・日/10:00 - 17:00/水/定休日 ■ 定休日/第二第四火曜/年末年始（12月30、31日、1月1～5日）,,-,～￥999,
17007872,メゾン・ド・ミュゲ,洋食、フレンチ,3.26,28,https://tabelog.com/ishikawa/A1701/A170101/17007872/,石川県/金沢市/大野町/4-チ228,36.61665323711576,136.6070523560477,火・水・木・金・土・日/11:30 - 14:30/17:30 - 21:00/月/定休日,予約可,-,"￥1,000～￥1,999",
17011591,こつこつおやつ 凪,喫茶店、カフェ、ケーキ,3.25,40,https://tabelog.com/ishikawa/A1701/A170101/17011591/,石川県/金沢市/大野町/7-108-4,36.61438242711636,136.6044172960266,水・木・金・土/11:00 - 17:00/L.O. 16:30/月・火・日/定休日 ■ 定休日/8月,予約不可,-,～￥999,
17014667,金沢天晴 山藤濁酒研究所,日本酒バー,3.18,13,https://tabelog.com/ishikawa/A1701/A170101/17014667/,石川県/金沢市/大野町/4イ170/ヤマト糀パーク,36.613357227118,136.60753717601406,月・木・金・土・日/10:00 - 17:00/火・水/定休日 年末年始は休業,,-,-,2024年6月23日
17005003,直江屋源兵衛,カフェ,3.16,29,https://tabelog.com/ishikawa/A1701/A170101/17005003/,石川県/金沢市/大野町/4-16,36.6120429971177,136.6039596160033,月・火・木・金・土・日/10:00 - 17:00/水/定休日,予約不可,-,～￥999,
17000912,もろみ蔵,カフェ、ソフトクリーム,3.12,33,https://tabelog.com/ishikawa/A1701/A170101/17000912/,石川県/金沢市/大野町/2-39,36.6113972371186,136.6054876959957,月・火・水・木・金/11:00 - 18:00/土・日/10:00 - 18:00,,-,～￥999,
17013349,ヤマト醤油味噌 糀パーク,その他,3.08,28,https://tabelog.com/ishikawa/A1701/A170101/17013349/,石川県/金沢市/大野町/4イ170,36.613573727117874,136.60755667601623,,予約可,-,-,
17008660,粟森梅月堂,和菓子,3.07,8,https://tabelog.com/ishikawa/A1701/A170101/17008660/,石川県/金沢市/大野町/4-118,36.61205122711749,136.6033234960038,火・水・木・金・土・日/08:30 - 18:00/月/定休日,,-,-,1926年
17008686,ヒコサ,パン,3.07,6,https://tabelog.com/ishikawa/A1701/A170101/17008686/,石川県/金沢市/大野町/7-35-1,36.61403999711663,136.60457654602305,月・火・木・金・土/14:00 - 17:00/水・日/定休日,,-,-,
17010339,はなくま食堂,創作料理,3.05,8,https://tabelog.com/ishikawa/A1701/A170101/17010339/,石川県/金沢市/大野町/4-カ85-1,36.6112951036315,136.6051553579767,,予約可,-,"￥1,000～￥1,999",
17012792,Alembic Distillery Pub Salt,パブ,3.05,3,https://tabelog.com/ishikawa/A1701/A170102/17012792/,石川県/金沢市/大野町/4-ハ17,36.6142091263832,136.60748203381772,【営業時間】/10:00～17:00(L.O.16:00)/※営業日はSNSで告知,,-,-,2021年5月8日
17011249,ホホホ座金沢,その他,3.04,15,https://tabelog.com/ishikawa/A1701/A170101/17011249/,石川県/金沢市/大野町/3-51-6,36.6127812671182,136.6070126860086,火・水・木・金・土/13:00 - 17:00/月・日/定休日,予約不可,-,～￥999,2017年6月30日
17014971,コハネイロcafe,カフェ,3.04,3,https://tabelog.com/ishikawa/A1701/A170101/17014971/,石川県/金沢市/大野町/1-38-4,36.61147123711846,136.60520199599665,土・日/11:00 - 16:00/月・火・水・木・金/定休日,予約可,-,-,2024年12月7日
17014769,palette,コーヒースタンド,3.04,2,https://tabelog.com/ishikawa/A1701/A170102/17014769/,石川県/金沢市/大野町/4丁目ハ25-2,36.61459263711704,136.60695659602692,火・木/18:00 - 21:00/土/11:00 - 18:00/月・水・金・日/定休日,,-,-,2024年7月20日
17014625,まほうのだがしやチロル堂 金澤店,カフェ,3.02,1,https://tabelog.com/ishikawa/A1701/A170101/17014625/,石川県/金沢市/大野町/3-15,36.61245752711806,136.6059038860061,月・火・水・金/14:00 - 17:00/土/11:00 - 17:00/木・日・祝日/定休日,,-,-,
17013817,クルル,カフェ,3.02,1,https://tabelog.com/ishikawa/A1701/A170101/17013817/,石川県/金沢市/大野町/1-34-2,36.61135178711844,136.6048801959957,月・火・木・金・土・日/11:00 - 17:00/水/定休日 ■ 定休日/不定休,,-,-,
17008520,大畑食品,惣菜・デリ,3.01,3,https://tabelog.com/ishikawa/A1701/A170101/17008520/,石川県/金沢市/大野町/4丁目リ170-4,36.61531993711614,136.60561144603523,,,-,-,
17011913,味噌蔵カフェ きくや,カフェ,3.01,2,https://tabelog.com/ishikawa/A1701/A170101/17011913/,石川県/金沢市/大野町/5-33,36.61254257518345,136.60388740908198,火・水・木・金・土/11:30 - 15:30/月・日/定休日 ■ 定休日/第3土曜日,,-,-,
17015305,Cafe　ぎゃるりいっかん,カフェ,0.0,1,https://tabelog.com/ishikawa/A1701/A170101/17015305/,石川県/金沢市/大野町/6-2,36.61286092711699,136.60336763601197,水・金・土・日/11:00 - 17:00/L.O. 17:00/月・火・木/定休日,予約可,-,-,
17000789,お食事処 ともちどり,ラーメン,0.0, - ,https://tabelog.com/ishikawa/A1701/A170101/17000789/,石川県/金沢市/大野町/2-39,36.61139727711859,136.60548791599572,日/11:00 - 14:00/月・火・水・木・金・土/定休日,,-,-,
