store_id,store_name,genre,rate,review_cnt,store_url,address,latitude,longitude,business_hours,reserve,dinner_budget,lunch_budget,opened
17001994,但馬や,焼肉,3.56,21,https://tabelog.com/ishikawa/A1702/A170203/17001994/,石川県/野々市市/粟田/4-150,36.5172458471805,136.61211015504003,月・火・水・金・土・日/17:00 - 22:30/L.O. 22:00/木/定休日,予約可,"￥4,000～￥4,999",-,
17001476,ラ・モーラ,スペイン料理,3.28,31,https://tabelog.com/ishikawa/A1702/A170203/17001476/,石川県/野々市市/粟田/2-242-2,36.514004477182475,136.6118463750075,11:30 - 15:00/L.O. 14:00/17:30 - 22:30/L.O. 21:00 ■ 定休日/不定休,予約可,"￥5,000～￥5,999",-,
17009928,らぁめん秀 金澤,ラーメン、つけ麺,3.27,77,https://tabelog.com/ishikawa/A1702/A170203/17009928/,石川県/野々市市/粟田/5-430,36.51502224718114,136.6096848250193,月・火・水・木・金・土/11:00 - 00:00/日・祝日/11:00 - 20:00,予約不可,"￥1,000～￥1,999","￥1,000～￥1,999",2016年1月9日
17014166,鮨海鮮 気楽,寿司,3.24,27,https://tabelog.com/ishikawa/A1702/A170203/17014166/,石川県/野々市市/粟田/5-403,36.51503263637588,136.6100508938574,月・火・木・金・祝前日/11:00 - 14:30/L.O. 14:00/18:00 - 22:00/L.O. 料理21:00 ドリンク21:30/土・日・祝日/11:00 - 14:30/L.O. 14:00/17:00 - 22:00/L.O. 料理21:00 ドリンク21:30/水/定休日,予約可,"￥3,000～￥3,999","￥1,000～￥1,999",2023年9月7日
17008443,氷見ラーメン 野々市粟田店,ラーメン、餃子,3.19,42,https://tabelog.com/ishikawa/A1702/A170203/17008443/,石川県/野々市市/粟田/1-177,36.51021937718504,136.6123523249689,,予約可,-,～￥999,2013年8月12日
17001050,菓子工房エクラタン,ケーキ,3.15,29,https://tabelog.com/ishikawa/A1702/A170203/17001050/,石川県/野々市市/粟田/6-494,36.51019212718379,136.6083590649714,月・火・木・金・土・日/10:00 - 20:00/水/定休日 ■ 営業時間/カフェ 10:00～19:30(L.O.19:00),予約可,"￥1,000～￥1,999",-,2007年11月
17011258,厨酒房 龍菜,中華料理、居酒屋,3.11,12,https://tabelog.com/ishikawa/A1702/A170203/17011258/,石川県/野々市市/粟田/2-16,36.51271179718433,136.61508046499216,火・水・木・金・土・日/11:45 - 13:30/18:00 - 23:00/月/定休日,予約可,-,-,2018年6月26日
17009803,ののん,カフェ,3.1,29,https://tabelog.com/ishikawa/A1702/A170203/17009803/,石川県/野々市市/粟田/5-394,36.51455863637625,136.61029259385242,月・火・水・木・土・日/11:00 - 20:00/L.O. 19:30/金/定休日 ■ 営業時間/(売り切れ時早めに閉店する場合あり),,-,"￥1,000～￥1,999",2015年7月17日
17011862,ケーキ ハコハナ,ケーキ、カフェ、洋菓子,3.1,19,https://tabelog.com/ishikawa/A1702/A170203/17011862/,石川県/野々市市/粟田/1-159,36.50920643638026,136.612183693797,12:00 - 18:00,予約可,～￥999,～￥999,
17003259,ほっぺ,居酒屋,3.09,10,https://tabelog.com/ishikawa/A1702/A170203/17003259/,石川県/野々市市/粟田/4-28-1,36.51586749718141,136.61222772502603,,予約可,"￥4,000～￥4,999",-,
17013994,寿司和食処 きときと 野々市店,回転寿司、日本料理,3.07,11,https://tabelog.com/ishikawa/A1702/A170203/17013994/,石川県/野々市市/粟田/5-441,36.514799229125494,136.6089334347364,11:00 - 21:30,予約可,-,-,2022年5月20日
17010840,鮮魚 和風創作 越前華丸 野々市店,居酒屋、海鮮,3.07,9,https://tabelog.com/ishikawa/A1702/A170203/17010840/,石川県/野々市市/粟田/5-437-3,36.5156088742561,136.60947779669408,月・火・水・木・日/17:00 - 00:00/L.O. 23:00/金・土・祝前日/17:00 - 01:00/L.O. 00:00 ■定休日/無休,予約可,"￥3,000～￥3,999",-,2017年11月3日
17013954,麺屋 達 野々市店,ラーメン,3.06,14,https://tabelog.com/ishikawa/A1702/A170203/17013954/,石川県/野々市市/粟田/6-366-1,36.51029247718396,136.60908606497196,11:00 - 22:00,予約可,-,～￥999,2023年1月26日
17001993,ふうら,焼肉,3.06,7,https://tabelog.com/ishikawa/A1702/A170203/17001993/,石川県/野々市市/粟田/1-175,36.50988981245366,136.61226616176958,,予約可,-,-,
17014545,相撲茶屋 繁,ちゃんこ鍋,3.06,5,https://tabelog.com/ishikawa/A1702/A170203/17014545/,石川県/野々市市/粟田/6-413,36.51159619522749,136.60706657443214,月・火・水・木・金/11:00 - 15:00/L.O. 料理14:15/土・日/定休日,,-,-,2024年3月18日
17014357,らーめん全日本 野々市あわだ店,ラーメン,3.05,7,https://tabelog.com/ishikawa/A1702/A170203/17014357/,石川県/野々市市/粟田/2-264-1,36.51401297227958,136.61167824298104,火・水・木・金・土/11:00 - 14:30/17:30 - 21:30/日/11:00 - 14:30/月/定休日,予約不可,-,-,2023年12月
17010642,ごちそう こよみ,居酒屋,3.05,6,https://tabelog.com/ishikawa/A1701/A170101/17010642/,石川県/野々市市/粟田/5430,36.51494461718119,136.6096813550185,月・火・木・金・土・日/17:00 - 01:00/L.O. 00:00/水/定休日,予約可,-,-,
17008385,いいとこ鳥 野々市店,居酒屋、焼き鳥、鳥料理,3.05,6,https://tabelog.com/ishikawa/A1701/A170101/17008385/,石川県/野々市市/粟田/2‐20,36.512824836378705,136.6145297938319,月・火・水・木・日/17:00 - 02:00/金・土/17:00 - 03:00,,-,-,
17001255,めん房 本陣 野々市店,うどん、そば、日本料理,3.04,20,https://tabelog.com/ishikawa/A1702/A170203/17001255/,石川県/野々市市/粟田/5-426,36.515313167180885,136.60944877502237,月・火・水・木・金/11:00 - 15:30/L.O. 15:00/17:30 - 21:00/L.O. 20:30/土・日/11:00 - 21:00/L.O. 20:30 ■ 定休日/1月1日,予約可,～￥999,～￥999,
17000560,ル・シャトレ,フレンチ、イタリアン、パスタ,3.04,6,https://tabelog.com/ishikawa/A1702/A170203/17000560/,石川県/野々市市/粟田/1-182-2,36.51004012718508,136.6120850349673,火・水・木・金・土・日/11:20 - 14:20/L.O. 13:50/18:00 - 21:00/L.O. 19:50/月/定休日 ■ 定休日/月曜日（祝日の場合は翌日火曜日定休）,予約可,"￥3,000～￥3,999","￥1,000～￥1,999",
17002746,旬彩こより,日本料理、居酒屋,3.04,3,https://tabelog.com/ishikawa/A1702/A170203/17002746/,石川県/野々市市/粟田/4-157-12/1F,36.51767452718024,136.61215685504433,,予約可,-,-,
17011997,大地のぶた 野々市店,しゃぶしゃぶ,3.03,5,https://tabelog.com/ishikawa/A1702/A170203/17011997/,石川県/野々市市/粟田/5-367,36.51361452718192,136.6093346050053,月・火・水・木・金/11:30 - 16:00/17:00 - 22:30/土・日・祝日/11:30 - 22:30,予約可,-,-,
17006854,もつ焼 五右衛門,ホルモン、焼肉,3.03,4,https://tabelog.com/ishikawa/A1702/A170203/17006854/,石川県/野々市市/粟田/1-179,36.51014113637962,136.61206839380654,火・水・木・金・土・日/17:00 - 23:00/月/定休日,予約可,-,-,2011年4月1日
17014109,野々市 魂心家,ラーメン,3.02,17,https://tabelog.com/ishikawa/A1702/A170203/17014109/,石川県/野々市市/粟田/6-207,36.50926606718425,136.60795124496235,11:00 - 02:00/L.O. 01:30,予約不可,"￥1,000～￥1,999",～￥999,2023年7月14日
17009900,タリーズコーヒー 金沢野々市店,カフェ,3.02,12,https://tabelog.com/ishikawa/A1702/A170203/17009900/,石川県/野々市市/粟田/5-461,36.515273621397036,136.60885147525678,09:00 - 23:00,予約不可,-,～￥999,
17015185,Balmy Life Coffee,コーヒースタンド,3.02,3,https://tabelog.com/ishikawa/A1702/A170203/17015185/,石川県/野々市市/粟田/3-1-1,36.51329048986365,136.61497564130772,火・水・木・金・土/11:30 - 23:00/L.O. 22:30/日/11:30 - 18:00/L.O. 17:30/月/定休日,,-,-,
17015314,DA-OKU de Cafe,カフェ,3.02,2,https://tabelog.com/ishikawa/A1702/A170203/17015314/,石川県/野々市市/粟田/1-179,36.510141137185,136.6120654949683,,,-,-,2025年7月1日
17014387,どか亭,イタリアン、居酒屋,3.02,1,https://tabelog.com/ishikawa/A1702/A170203/17014387/,石川県/野々市市/粟田/1-179,36.510149327185005,136.6120747949684,,,-,-,2024年2月1日
17005657,８番らーめん 野々市粟田店,ラーメン,3.01,20,https://tabelog.com/ishikawa/A1702/A170203/17005657/,石川県/野々市市/粟田/5-89-1,36.5139657144264,136.60934899415608,11:00 - 23:30/L.O. 23:00,,～￥999,～￥999,
17005294,吉野家 野々市町店,牛丼、カレー、食堂,3.01,10,https://tabelog.com/ishikawa/A1702/A170203/17005294/,石川県/野々市市/粟田/6-42,36.510140423234404,136.6088508441497,24時間営業,予約可,-,-,
17004545,野々市食堂,食堂,3.01,10,https://tabelog.com/ishikawa/A1702/A170203/17004545/,石川県/野々市市/粟田/3-57,36.5140602971829,136.61329980500705,,予約不可,-,-,
17015187,松屋 松のや 野々市中央通り店,牛丼、とんかつ,3.01,3,https://tabelog.com/ishikawa/A1702/A170203/17015187/,石川県/野々市市/粟田/6-377,36.50908160718453,136.60846299496015,24時間営業,予約不可,-,-,2025年4月22日
17008394,おひさま,カフェ,3.01,1,https://tabelog.com/ishikawa/A1702/A170203/17008394/,石川県/野々市市/粟田/3-282,36.517720937180286,136.6124123950447,10:00 - 18:00 ■ 定休日/不定休,予約不可,-,-,2013年6月1日
17010193,ここの音 富奥店,お好み焼き、たこ焼き、たい焼き・大判焼き,3.0,2,https://tabelog.com/ishikawa/A1702/A170203/17010193/,石川県/野々市市/粟田/1-266/Aコープ富奥店,36.510711636379305,136.6122052938122,10:00 - 19:00 ■ 定休日/不定休(Aコープ富奥店に準ずる),,-,-,
17012903,からあげ 金と銀 野々市粟田店,からあげ,3.0,2,https://tabelog.com/ishikawa/A1702/A170203/17012903/,石川県/野々市市/粟田/1-175,36.50991283718523,136.61233020496582,11:00 - 21:00 ■ 定休日/不定休,,-,～￥999,
17013664,焼肉 美びび,焼肉,0.0,1,https://tabelog.com/ishikawa/A1702/A170203/17013664/,石川県/野々市市/粟田/1-179-1,36.510141497185,136.6120687149683,,,-,-,2022年8月2日
17011460,西安味道,餃子、肉まん、飲茶・点心,0.0,1,https://tabelog.com/ishikawa/A1702/A170203/17011460/,石川県/野々市市/粟田/1-263-3,36.51130022718431,136.61220328497993,火・水・木・金・土・日/10:30 - 19:30/月/定休日,,-,～￥999,
17001668,串焼き　くにちゃん,焼き鳥,0.0, - ,https://tabelog.com/ishikawa/A1702/A170203/17001668/,石川県/野々市市/粟田/2-23-2,36.51307013637846,136.61418699383466,■定休日/木曜日,,-,-,
17011839,おしおや,居酒屋,0.0, - ,https://tabelog.com/ishikawa/A1702/A170203/17011839/,石川県/野々市市/粟田/3-257,36.51653943637575,136.61261059387078,火・水・木・金・土・日/17:30 - 03:00/月/定休日,,-,-,
17011525,バレットリボルバー,バー、ダイニングバー、バル,0.0, - ,https://tabelog.com/ishikawa/A1702/A170203/17011525/,石川県/野々市市/粟田/1-175,36.509875636379874,136.6123078938037,月・火・水・木・金/15:00 - 02:00/土・日・祝日/13:00 - 02:00 ■定休日/年中無休,予約可,"￥1,000～￥1,999",-,2009年11月20日
17015386,NONOiCHi BASE,バー,0.0, - ,https://tabelog.com/ishikawa/A1702/A170203/17015386/,石川県/野々市市/粟田/3-257,36.51650744370963,136.6125952741939,,,-,-,
17004410,もっこす,喫茶店,0.0, - ,https://tabelog.com/ishikawa/A1702/A170203/17004410/,石川県/野々市市/粟田/3-268,36.51698863637543,136.61253289387537,,,-,-,
17013361,中華そば ブラボー,ラーメン,3.46,81,https://tabelog.com/ishikawa/A1702/A170203/17013361/,石川県/野々市市/稲荷/4-85,36.53681441716512,136.60283111524424,月・火・水・木・金・土/11:00 - 15:00/L.O. 14:30/18:00 - 21:30/L.O. 21:00/日/定休日 ■ 定休日/第1・3月曜日,予約不可,"￥1,000～￥1,999","￥1,000～￥1,999",2022年4月5日
17012724,Salut Enchante 野々市店,サンドイッチ、パン,3.2,18,https://tabelog.com/ishikawa/A1702/A170203/17012724/,石川県/野々市市/稲荷/4-151,36.53644737572173,136.60358288237907,10:00 - 17:00 ■ 営業時間/売切次第終了,予約可,-,-,
17011893,株式会社 米屋,その他,3.03,5,https://tabelog.com/ishikawa/A1702/A170203/17011893/,石川県/野々市市/稲荷/1-88,36.535135697167014,136.60544265522543,月・火・水・木・金・土/09:00 - 18:30/日・祝日/定休日,,-,～￥999,1963年3月
17002647,お多福 御園店,そば、うどん,3.0,4,https://tabelog.com/ishikawa/A1702/A170203/17002647/,石川県/野々市市/稲荷/4-147,36.536713636359984,136.60337189408105,月・火・水・木・金・土/11:00 - 14:00/17:00 - 20:00/日/定休日,,-,～￥999,
17009897,食楽酒場 しんご。,居酒屋,4.52,1,https://tabelog.com/ishikawa/A1702/A170203/17009897/,石川県/野々市市/稲荷/2-138,36.533931577167195,136.60360266521454,月・火・土・日/18:00 - 00:00/木・金/11:00 - 14:00/18:00 - 00:00/水/定休日 ■営業時間/[月・火・木・金・土・日］18:00〜24:00/［木・金］11:00～14:00,,-,-,2015年12月14日
17011851,菓子工房&コーヒー ののの木,カフェ,3.68,1,https://tabelog.com/ishikawa/A1702/A170203/17011851/,石川県/野々市市/稲荷/1-58,36.53475920949707,136.6049172475977,,,-,-,
17002895,シルク・ロード,喫茶店,3.61, - ,https://tabelog.com/ishikawa/A1702/A170203/17002895/,石川県/野々市市/稲荷/4-80,36.53661331716529,136.6029767652421,,,-,-,
17003175,おとと魚,居酒屋,3.56, - ,https://tabelog.com/ishikawa/A1702/A170203/17003175/,石川県/野々市市/稲荷/4-99,36.53717449472369,136.60238048209376,,,-,-,
17000700,すし処 めくみ,寿司,3.53,505,https://tabelog.com/ishikawa/A1702/A170203/17000700/,石川県/野々市市/下林/4-48,36.52157049717454,136.60199876509083,火・水・木・金・土/18:00 - 20:00/20:30 - 22:30/日/12:00 - 14:00/18:00 - 20:00/20:30 - 22:30/月/定休日 ■ 営業時間/[火～土]/18:00～20:30(最終入店)/[日]/12:00(最終入店) /18:00～20:30(最終入店)/■ 定休日/月曜・火曜不定休,完全予約制,"￥40,000～￥49,999","￥40,000～￥49,999",
17013055,ジョニーのビリヤニ,インド料理、インドカレー、パキスタン料理,3.53,217,https://tabelog.com/ishikawa/A1702/A170203/17013055/,石川県/野々市市/白山町/4-1/イオンタウン野々市,36.527384136369236,136.61383179397947,月・火・水・木/11:00 - 15:00/金・土/11:00 - 19:00/日・祝日・祝前日/11:00 - 19:00/L.O. 14:00/祝後日/11:00 - 15:00/L.O. 14:00,予約可,"￥1,000～￥1,999","￥1,000～￥1,999",2021年9月1日
17011468,とんかつ専門店 かつ坊,とんかつ,3.51,79,https://tabelog.com/ishikawa/A1702/A170203/17011468/,石川県/野々市市/高橋町/14-43/グリーンハイツⅡ 1F,36.53215128717517,136.6250970451815,水・木・金・土・日/11:30 - 14:30/17:30 - 20:30/月・火/定休日,予約可,"￥2,000～￥2,999","￥1,000～￥1,999",2018年11月1日
17001994,但馬や,焼肉,3.44,21,https://tabelog.com/ishikawa/A1702/A170203/17001994/,石川県/野々市市/粟田/4-150,36.5172458471805,136.61211015504003,月・火・水・金・土・日/17:00 - 22:30/L.O. 22:00/木/定休日,予約可,"￥4,000～￥4,999",-,
17006708,自家製麺 TERRA,ラーメン,3.43,205,https://tabelog.com/ishikawa/A1702/A170203/17006708/,石川県/野々市市/扇ヶ丘9-20/扇ヶ丘ビル1Ｆ横,36.527197936374286,136.62932679396675,火・水・土/11:00 - 14:00/L.O. 料理13:45/17:30 - 20:00/L.O. 料理19:45/日/11:00 - 14:00/L.O. 料理13:45/月・木・金/定休日,予約不可,"￥1,000～￥1,999","￥1,000～￥1,999",2010年6月5日
17011967,ななや,居酒屋、牛料理、揚げ物,0.0,45,https://tabelog.com/ishikawa/A1702/A170203/17011967/,石川県/野々市市/下林/3-287-1,36.52375477717265,136.600410415114,火・水・木・金・土/11:30 - 14:00/L.O. 13:30/17:30 - 23:00/L.O. 22:30/月・日/定休日,予約可,-,"￥1,000～￥1,999",2019年6月6日
17013650,マルガーラボ 野々市店,ジェラート・アイスクリーム、洋菓子,0.0,137,https://tabelog.com/ishikawa/A1702/A170203/17013650/,石川県/野々市市/本町/6-370,36.535032007168546,136.61004424522116,月・火・木・金・土・日/11:00 - 17:00/水/定休日,予約不可,～￥999,-,
17009973,NiOR,パン,0.0,85,https://tabelog.com/ishikawa/A1702/A170203/17009973/,石川県/野々市市/白山町/392,36.52795829717358,136.6117569051485,月・火・金/10:00 - 19:00/土・日・祝日/09:00 - 19:00/水・木/定休日 ■ 営業時間/※売り切れ次第終了/■ 定休日/不定休,予約不可,-,-,2016年2月
17013675,ramen 雨燕,ラーメン,0.0,67,https://tabelog.com/ishikawa/A1702/A170203/17013675/,石川県/野々市市/高橋町/5-28,36.53235468717481,136.62436722518407,月・火・水・金・土・日/11:00 - 14:30/18:00 - 22:00/木/定休日 ■ 定休日/木曜日、第2・3火曜日,予約不可,"￥1,000～￥1,999","￥1,000～￥1,999",2022年11月1日
17001420,パティスリー・ショコラトリー サンニコラ,ケーキ、チョコレート,3.4,86,https://tabelog.com/ishikawa/A1702/A170203/17001420/,石川県/野々市市/扇が丘/10-26,36.52778341717914,136.62885706513472,月・木・金/10:00 - 19:00/火/10:00 - 17:00/土・日・祝日/10:00 - 18:00/水/定休日 ■ 定休日/不定休(公式サイト告知あり),予約可,-,-,2003年
17009323,ラーメン虎,ラーメン、丼,3.11,30,https://tabelog.com/ishikawa/A1702/A170203/17009323/,石川県/野々市市/扇が丘/3-50,36.52963579717629,136.6236132951571,月・火・水・木・金/11:30 - 15:30/土/11:00 - 15:30/日・祝日/定休日 ■ 営業時間/[第4土]/11:00～15:30/■定休日/土曜日,,-,～￥999,
17012593,ラーメン 太る 野々市店,ラーメン,3.07,18,https://tabelog.com/ishikawa/A1702/A170203/17012593/,石川県/野々市市/扇が丘/3-18/イマジンビル 1F,36.52945059717667,136.62442726515468,11:00 - 14:00/17:00 - 21:00 ■ 営業時間/※年中無休/■定休日/なし,予約不可,～￥999,～￥999,2021年1月14日
17006427,たんと,居酒屋、焼き鳥,3.07,9,https://tabelog.com/ishikawa/A1702/A170203/17006427/,石川県/野々市市/扇が丘/9-20/扇が丘ビル 1F,36.527457417179576,136.62955818513095,月・火・水・木・日/18:00 - 03:00/L.O. 02:30/金・土・祝日/18:00 - 05:00/L.O. 04:00 ■ 定休日/第３水曜,予約可,"￥3,000～￥3,999",-,
17012607,いちゃりば,沖縄料理,3.06,5,https://tabelog.com/ishikawa/A1702/A170203/17012607/,石川県/野々市市/扇が丘/9-20/扇が丘ビル1F,36.52730955717964,136.62946381512953,18:00 - 00:00/L.O. 23:00 ■ 定休日/不定休,予約可,"￥3,000～￥3,999",-,2021年1月30日
17015177,成吉思汗大学 にんにく組,ジンギスカン,3.04,3,https://tabelog.com/ishikawa/A1702/A170203/17015177/,石川県/野々市市/扇が丘/3-3-18/イマジンビル1F,36.53009103717606,136.62376219516162,11:00 - 14:00/18:00 - 21:00,,-,-,2025年4月7日
17006881,松屋 金沢工大前店,牛丼、カレー、食堂,3.02,15,https://tabelog.com/ishikawa/A1702/A170203/17006881/,石川県/野々市市/扇が丘/8-8,36.52878571717886,136.62997613514406,24時間営業,予約可,-,～￥999,
17007939,厨彩ユメジ つばき店,居酒屋、海鮮,3.02,4,https://tabelog.com/ishikawa/A1702/A170203/17007939/,石川県/野々市市/扇が丘/96-2,36.530111237175966,136.62357529516197,18:00 - 01:00/L.O. 00:30,予約可,-,-,2012年10月10日
17009318,イベルナーレ,イタリアン,3.02,2,https://tabelog.com/ishikawa/A1702/A170203/17009318/,石川県/野々市市/扇が丘/3-18/イマジンビル 1F,36.52948822479267,136.6254805508583,11:00 - 14:30/L.O. 14:30/18:00 - 23:30/L.O. 23:30 ■ 定休日/不定休(加えて12/31～1/2休み),,-,-,
17014282,8番らーめん 金沢工大前店,ラーメン,3.01,11,https://tabelog.com/ishikawa/A1702/A170203/17014282/,石川県/野々市市/扇が丘/445,36.52787036717935,136.62969168513504,,予約不可,-,-,
17007786,ウ・ヌボーレ,バー、洋食,3.01,1,https://tabelog.com/ishikawa/A1702/A170203/17007786/,石川県/野々市市/扇が丘/4-8,36.52962181800009,136.62527361744924,12:00 - 17:00/20:00 - 02:00,予約可,-,-,2012年4月20日
17010351,レストラン・ラ・テラ,学生食堂,3.01,1,https://tabelog.com/ishikawa/A1702/A170203/17010351/,石川県/野々市市/扇が丘/7-1/金沢工業大学21号館 1F,36.52998129103455,136.62911161548632,月・火・水・木・金/08:00 - 15:00/16:00 - 19:00/土/10:00 - 13:00/日/定休日,,-,-,
17008933,ピザハット 金沢工大前店,ピザ,3.0,3,https://tabelog.com/ishikawa/A1702/A170203/17008933/,石川県/野々市市/扇が丘/450,36.527772368962765,136.6295883442635,11:00 - 23:00/L.O. 22:45,,-,-,
17011766,肉匠 赤牛,焼肉、ホルモン,0.0,1,https://tabelog.com/ishikawa/A1702/A170203/17011766/,石川県/野々市市/扇が丘/161-2,36.529735477176835,136.6255074751568,月・火・水・木・金・土/18:00 - 03:00/日/17:00 - 00:00 ■ 定休日/不定休,,-,-,
17015282,レストラン　LA TERRA,学生食堂,0.0,1,https://tabelog.com/ishikawa/A1702/A170203/17015282/,石川県/野々市市/扇が丘/7-1/扇が丘キャンパス21号館 1F,36.52865163717842,136.62829209514393,月・火・水・木・金/08:00 - 19:00/土/10:00 - 13:00/日・祝日/定休日,予約不可,-,-,
17010872,カラオケスタジオ 飛行船 工大前店,その他,0.0, - ,https://tabelog.com/ishikawa/A1702/A170203/17010872/,石川県/野々市市/扇が丘/4-8,36.52971359717675,136.62519011515684,,,-,-,
17001809,酔扇,焼き鳥,0.0, - ,https://tabelog.com/ishikawa/A1702/A170203/17001809/,石川県/野々市市/扇が丘/16-18,36.527485707177185,136.62211734513645,,,-,-,
17008084,カジャーナ,インド料理、インドカレー,3.37,80,https://tabelog.com/ishikawa/A1702/A170203/17008084/,石川県/野々市市/御経塚/1-478,36.545458707157145,136.59504698533698,11:00 - 22:00/L.O. 21:00 ■ 営業時間/ランチメニュー11：00～14：30/ランチ営業、日曜営業/■ 定休日/年中無休(1月1日～1月2日のみ休み),予約可,"￥1,000～￥1,999","￥1,000～￥1,999",2012年11月7日
17014164,ナナマルカリー スパイスカレー専門店,カレー,3.33,45,https://tabelog.com/ishikawa/A1702/A170203/17014164/,石川県/野々市市/御経塚/2-197,36.548029136350806,136.59710619419974,月・火・木/11:00 - 18:00/金・土・日・祝日/11:00 - 15:00/17:30 - 21:00/水/定休日 不定休 月間予定はinstagramをご確認ください,予約可,"￥1,000～￥1,999","￥1,000～￥1,999",2023年9月13日
17014719,中華そば 吉吉飯店,ラーメン、中華料理,3.26,56,https://tabelog.com/ishikawa/A1702/A170203/17014719/,石川県/野々市市/御経塚/5-72,36.54683593715829,136.60138189534646,月・火・水・木・金・土・日・祝日・祝前日・祝後日/11:00 - 15:30/L.O. 15:00/17:00 - 00:30/L.O. 00:00 不定休の為詳しい休業日はInstagramをご覧ください。,予約不可,"￥1,000～￥1,999","￥1,000～￥1,999",2024年9月
17005173,ブレッドハウス・エピ,パン、サンドイッチ,3.22,27,https://tabelog.com/ishikawa/A1702/A170203/17005173/,石川県/野々市市/御経塚/3-237,36.55193717715346,136.5963828254015,月・水・木・金・土・日/07:00 - 19:00/火/定休日,予約可,-,-,1996年
17014001,Banana Bulldog,カフェ,3.2,22,https://tabelog.com/ishikawa/A1702/A170203/17014001/,石川県/野々市市/御経塚/1-314,36.54293741518951,136.5978758353133,,予約不可,-,-,
17015074,ミルクドドレイク 御経塚店,ドーナツ,3.16,14,https://tabelog.com/ishikawa/A1702/A170203/17015074/,石川県/野々市市/御経塚/1-525/清泉SIDE 1F D-2区画,36.54562126715705,136.5950712753386,11:00 - 19:00,予約不可,-,-,2025年2月25日
17015383,おにぎりとスープ　一二三,おにぎり,3.16,9,https://tabelog.com/ishikawa/A1702/A170203/17015383/,石川県/野々市市/御経塚/3-509/テナントストリート 1-C,36.549279677154814,136.5953416153754,SNSに掲載あり,,-,-,2025年7月18日
17014683,うりぼう食堂,韓国料理,3.16,9,https://tabelog.com/ishikawa/A1702/A170203/17014683/,石川県/野々市市/御経塚/2-197/きずな5,36.548152567156095,136.59710505536276,火・水・木・金・土/11:30 - 15:00/17:30 - 22:00/日/11:30 - 16:00/月/定休日,予約可,-,-,2024年7月17日
17014440,チャンピオンカレー 御経塚店,カレー,3.15,17,https://tabelog.com/ishikawa/A1702/A170203/17014440/,石川県/野々市市/御経塚/町3-135,36.55180664715367,136.59677779539987,11:00 - 21:00/L.O. 20:45 ■ 定休日/夏季・年末年始を除き無休,予約可,-,"￥1,000～￥1,999",2024年2月26日
17010011,キッチン カルロ,イタリアン、パスタ、ピザ,3.09,42,https://tabelog.com/ishikawa/A1702/A170203/17010011/,石川県/野々市市/御経塚/1-474,36.54611093635139,136.59512219418173,11:00 - 15:00/L.O. 14:30/17:00 - 22:00/L.O. 21:30 12/31・1/1・1/2は店休となります。,予約可,"￥2,000～￥2,999","￥2,000～￥2,999",2016年3月1日
17014697,とんかつ神楽坂さくら アークスクエア御経塚店,とんかつ,3.09,15,https://tabelog.com/ishikawa/A1702/A170203/17014697/,石川県/野々市市/御経塚/2-20,36.55030733715551,136.59957125538278,,,-,-,2024年7月29日
17002633,めん房つるつる 御経塚店,そば、うどん,3.08,28,https://tabelog.com/ishikawa/A1702/A170203/17002633/,石川県/野々市市/御経塚/2-310,36.548497127155215,136.59503997536765,月・火・水・木・金・土・日・祝日/11:00 - 20:30/L.O. 料理20:00 ■ 定休日/元日、1月2日,予約可,-,"￥1,000～￥1,999",
17014040,Cento per Cento 御経塚店,イタリアン、カフェ,3.08,17,https://tabelog.com/ishikawa/A1702/A170203/17014040/,石川県/野々市市/御経塚/2-92/アークスクエア御経塚 2F,36.54860458682957,136.59822963827582,10:00 - 20:00,予約可,-,"￥1,000～￥1,999",2023年6月28日
17010823,肉乃もりした,焼肉、居酒屋、ステーキ,3.08,16,https://tabelog.com/ishikawa/A1702/A170203/17010823/,石川県/野々市市/御経塚/2-197,36.547944827156236,136.59712848536063,11:00 - 14:30/L.O. 14:00/17:30 - 00:00/L.O. 23:30 ■定休日/不定休,予約可,"￥3,000～￥3,999",～￥999,2017年8月7日
17014840,MILK FIRM,カフェ,3.08,8,https://tabelog.com/ishikawa/A1702/A170203/17014840/,石川県/野々市市/御経塚/2-197,36.54802013715618,136.5970971953614,11:00 - 18:00 10月の定休日 木曜日、第2第3水曜日,予約不可,-,-,2024年9月27日
17015482,下町の時計台〜街角クロワッサンベーカリーカフェ〜,パン,3.06,8,https://tabelog.com/ishikawa/A1702/A170203/17015482/,石川県/野々市市/御経塚/2-3,36.54741413715742,136.5997949953534,09:00 - 18:00,,-,-,2025年9月30日
17013515,たこ焼き金沢パンダ焼きマルコ,たこ焼き、たい焼き・大判焼き,3.06,6,https://tabelog.com/ishikawa/A1702/A170203/17013515/,石川県/野々市市/御経塚/3-231,36.551319636348474,136.5963580942335,月・火・水・木・金・土/12:00 - 19:30/日/定休日,予約可,-,～￥999,
17015174,チョアチキン 野々市店,からあげ,3.06,5,https://tabelog.com/ishikawa/A1702/A170203/17015174/,石川県/野々市市/御経塚/1-314/CUBEZUKA A-3,36.54292589871494,136.59801288481003,月・水・木・金・土・日/11:00 - 21:00/火/定休日,予約可,-,-,2025年4月5日
17014698,牛角食べ放題専門店 アークスクエア御経塚店,焼肉,3.06,5,https://tabelog.com/ishikawa/A1702/A170203/17014698/,石川県/野々市市/御経塚/2-20,36.550375807155476,136.59956914538347,,予約可,-,-,2024年8月8日
17010098,倉式珈琲店 御経塚店,喫茶店,3.04,36,https://tabelog.com/ishikawa/A1702/A170203/17010098/,石川県/野々市市/御経塚/2-5,36.54796310715706,136.599739535359,07:00 - 21:00/L.O. 20:30,予約不可,"￥1,000～￥1,999",～￥999,
17005588,びっくりドンキー 御経塚店,ファミレス、ハンバーグ,3.04,34,https://tabelog.com/ishikawa/A1702/A170203/17005588/,石川県/野々市市/御経塚/4-106,36.552789617153984,136.59973869540772,11:00 - 02:00/L.O. 01:30,予約可,"￥1,000～￥1,999","￥1,000～￥1,999",
17012301,大衆焼肉ホルモン酒場 とりとん 御経塚店,焼肉、居酒屋,3.04,8,https://tabelog.com/ishikawa/A1702/A170203/17012301/,石川県/野々市市/御経塚/3-223,36.551078636348755,136.5967558942308,月・水・木・金・土・日/17:00 - 00:00/L.O. 23:30/火/定休日,予約可,"￥4,000～￥4,999",-,
17015086,鶏ちゃん専門店　いちいち,居酒屋、鳥料理,3.04,2,https://tabelog.com/ishikawa/A1702/A170203/17015086/,石川県/野々市市/御経塚/3-231,36.55131906715384,136.59635705539526,月・火・水・木・金・土/17:00 - 00:00/日/定休日,予約可,-,-,2025年2月10日
17015558,Oimo desse.,スイーツ,3.04,2,https://tabelog.com/ishikawa/A1702/A170203/17015558/,石川県/野々市市/御経塚/1-314,36.54293763715965,136.59787599530952,月・火・水・金・土・日/11:00 - 20:00/木/定休日 焼き芋&お芋スイーツ専門店,,-,-,2025年11月1日
17009672,やよい軒 金沢御経塚店,食堂、丼、うどん,3.03,24,https://tabelog.com/ishikawa/A1702/A170203/17009672/,石川県/野々市市/御経塚/4-108,36.55400080715322,136.59976491541997,10:00 - 23:00,予約不可,～￥999,～￥999,2015年7月27日
17014898,かっぱ寿司 アークスクエア御経塚店,回転寿司,3.03,15,https://tabelog.com/ishikawa/A1702/A170203/17014898/,石川県/野々市市/御経塚/2-47,36.55045297715521,136.59889808538472,月・火・水・木・金/11:00 - 23:00/L.O. 22:30/土・日・祝日/10:00 - 23:00/L.O. 22:30 ◆年末年始/ゴールデンウイーク/旧盆期間の営業時間は変動致しますので、かっぱ寿司ホームページのご確認、または店舗までお問い合わせくださいませ。/◆最終入店時間 閉店時間30分前,予約可,"￥1,000～￥1,999","￥1,000～￥1,999",2024年11月21日
17012505,みんなDEステーキ 御経塚店,ステーキ,3.03,11,https://tabelog.com/ishikawa/A1702/A170203/17012505/,石川県/野々市市/御経塚/3-509,36.54912032552874,136.5956176826246,11:00 - 22:00/L.O. 21:30,予約可,"￥2,000～￥2,999","￥1,000～￥1,999",
17001807,菅野,焼き鳥,3.03,4,https://tabelog.com/ishikawa/A1702/A170203/17001807/,石川県/野々市市/御経塚/3-227,36.55083992715412,136.59625926539047,月・火・水・金・土・日/17:00 - 23:00/木/定休日,予約可,"￥3,000～￥3,999",-,
17010587,乃が美 はなれ 金沢店,パン,3.02,18,https://tabelog.com/ishikawa/A1702/A170203/17010587/,石川県/野々市市/御経塚/1-218,36.546743247157,136.59716111534848,火・水・木・金・土・日/10:00 - 18:00/月/定休日,,-,-,2017年4月8日
17000268,風の街 御経塚店,お好み焼き,3.02,12,https://tabelog.com/ishikawa/A1702/A170203/17000268/,石川県/野々市市/御経塚/2-276,36.54701360715641,136.59581596535216,■ 営業時間/[月～土]/11:00～15:00(L.O14:30) 17:00～22:00(L.O.21:30)/[土日祝]11:00～22:00(L.O21:30)/■ 定休日/第３火曜日,予約可,-,-,
17014383,吉野家 御経塚店,牛丼,3.02,10,https://tabelog.com/ishikawa/A1702/A170203/17014383/,石川県/野々市市/御経塚/2-16,36.54986576431193,136.59959224923585,24時間営業,予約可,-,～￥999,2024年2月9日
17004205,キャラバンサライ御経塚ショップ,喫茶店,3.02,6,https://tabelog.com/ishikawa/A1702/A170203/17004205/,石川県/野々市市/御経塚/2-14,36.54959173715597,136.59960080537553,09:00 - 20:00,予約不可,～￥999,～￥999,
17012384,ケーキ工房 グーテ,ケーキ,3.02,3,https://tabelog.com/ishikawa/A1702/A170203/17012384/,石川県/野々市市/御経塚/1-485-1,36.54489144715759,136.59527825533107,,,-,-,
17013870,みんなDEステーキ食堂 御経塚店,ステーキ、ハンバーグ,3.02,2,https://tabelog.com/ishikawa/A1702/A170203/17013870/,石川県/野々市市/御経塚/2-3,36.54742331715742,136.5998031753535,11:00 - 22:00,,"￥2,000～￥2,999","￥1,000～￥1,999",2024年9月2日
17013200,みんなDE焼肉 御経塚店,焼肉、ホルモン、洋食,3.02,1,https://tabelog.com/ishikawa/A1702/A170203/17013200/,石川県/野々市市/御経塚/3-509,36.54926558209811,136.595292980681,11:00 - 22:00/L.O. 21:30,予約可,"￥2,000～￥2,999","￥1,000～￥1,999",2021年9月23日
17000280,焼肉きんぐ 御経塚店,焼肉、ホルモン、韓国料理,3.01,12,https://tabelog.com/ishikawa/A1702/A170203/17000280/,石川県/野々市市/御経塚/3-505,36.548975136349604,136.59523069421058,月・火・水・木・金/17:00 - 23:00/L.O. 料理22:00/土・日・祝日/11:00 - 23:00/L.O. 料理22:00 年末年始の営業時間は公式ホームページをご確認ください。,予約可,"￥2,000～￥2,999","￥1,000～￥1,999",
17002474,炭火焼肉屋さかい 御経塚店,焼肉、居酒屋、ファミレス,3.01,4,https://tabelog.com/ishikawa/A1702/A170203/17002474/,石川県/野々市市/御経塚/2-308,36.54831355715538,136.59519199536572,月・火・水・木・金/17:00 - 00:00/土・日・祝日/11:30 - 15:00/17:00 - 00:00 ■ 営業時間/※年末年始・GW・お盆期間中の営業時間は現在の表記内容と異なる場合があります。/直接各店舗までお問い合わせ下さい。/■ 定休日/年中無休,予約可,"￥2,000～￥2,999",-,
17009127,ほっかほっか亭 御経塚,弁当,3.01,4,https://tabelog.com/ishikawa/A1702/A170203/17009127/,石川県/野々市市/御経塚/1-221,36.54666759715698,136.5969152053479,10:00 - 23:00,予約可,-,-,
17010210,ドミノ・ピザ 御経塚店,ピザ,3.0,4,https://tabelog.com/ishikawa/A1702/A170203/17010210/,石川県/野々市市/御経塚/3-267,36.553109437152635,136.5961376754135,11:00 - 00:00,予約可,-,-,
17009437,居酒屋 のんちゃん,居酒屋,3.0,1,https://tabelog.com/ishikawa/A1702/A170203/17009437/,石川県/野々市市/御経塚/2-197,36.5480051771562,136.59712975536124,月・水・木・金・土・日/11:00 - 14:00/17:00 - 01:00/L.O. 00:00/火/定休日,,-,-,
17014036,コリアンカップ ミイン,韓国料理,0.0,1,https://tabelog.com/ishikawa/A1702/A170203/17014036/,石川県/野々市市/御経塚/1-314,36.54293741518951,136.5978758353133,月・水・木・日/11:00 - 18:00/金・土/11:00 - 20:00/火/定休日 ■ 定休日/不定休,,-,-,
17015641,食客,中華料理,0.0,1,https://tabelog.com/ishikawa/A1702/A170203/17015641/,石川県/野々市市/御経塚/1-524,36.54547803715711,136.59496969533723,10:00 - 22:00,,-,-,
17011691,ノッテン,カフェ,0.0, - ,https://tabelog.com/ishikawa/A1702/A170203/17011691/,石川県/野々市市/御経塚/3-278,36.553412371005905,136.59587857445507,,,-,-,
17002830,B,喫茶店,0.0, - ,https://tabelog.com/ishikawa/A1702/A170203/17002830/,石川県/野々市市/御経塚/1-459,36.54524053635212,136.59566699417257,,,-,-,
17006054,柚月,レストラン,0.0, - ,https://tabelog.com/ishikawa/A1702/A170203/17006054/,石川県/野々市市/御経塚/4-66,36.54841493268939,136.60067730601207,,,-,-,
17007452,ル・ベルジェ,ビストロ,3.3,38,https://tabelog.com/ishikawa/A1702/A170203/17007452/,石川県/野々市市/押越/2-18/ホワイトハウス1F,36.54006796716428,136.60670027527433,月・火・水・金・土・日/11:30 - 15:00/L.O. 13:00/18:00 - 22:00/L.O. 20:30/木/定休日 ■ 定休日/他不定休日あり。,予約可,"￥6,000～￥7,999","￥3,000～￥3,999",
17000497,居酒屋 こよみ,居酒屋,3.06,12,https://tabelog.com/ishikawa/A1702/A170203/17000497/,石川県/野々市市/押越/1-47,36.53908228716473,136.6061380952648,月・火・水・木・金・土/11:00 - 15:00/18:00 - 01:00/日・祝日/17:00 - 00:00,予約可,"￥3,000～￥3,999",-,
17009977,海天すし 野々市店,回転寿司,3.05,20,https://tabelog.com/ishikawa/A1702/A170203/17009977/,石川県/野々市市/押越/1-501,36.54007162716577,136.61140021527112,11:00 - 22:00/L.O. 21:30,予約不可,-,"￥2,000～￥2,999",
17009859,旬彩 和樂,海鮮、日本料理,3.05,10,https://tabelog.com/ishikawa/A1702/A170203/17009859/,石川県/野々市市/押越/2-3,36.53935774716433,136.6054248952681,火・水・木・金・土・日/17:30 - 23:00/L.O. 22:00/月/定休日 ■ 営業時間/［土・日］昼のコース４名様から承ります,予約可,"￥4,000～￥4,999",-,2015年11月5日
17014651,絶好鳥酒場 やっ鳥まっせ,居酒屋、焼き鳥,3.05,4,https://tabelog.com/ishikawa/A1702/A170203/17014651/,石川県/野々市市/押越/2-57,36.53996039716456,136.6073731652728,17:00 - 00:00,予約可,-,-,2024年6月3日
17013792,とらくま,焼き鳥、居酒屋,3.04,6,https://tabelog.com/ishikawa/A1702/A170203/17013792/,石川県/野々市市/押越/2-62,36.53945540716467,136.60668270526818,月・水・木・金・土・日/17:00 - 01:00/火/定休日,予約可,-,-,
17014926,MAMIANA食堂,食堂、弁当,3.04,3,https://tabelog.com/ishikawa/A1702/A170203/17014926/,石川県/野々市市/押越/2-410,36.54051318716411,136.60702735527863,月・火・水・金/11:30 - 14:00/L.O. 料理13:30/18:30 - 22:00/L.O. 料理21:30/土・日/11:30 - 14:00/L.O. 料理13:30/18:00 - 22:00/L.O. 料理21:30/木/定休日,予約可,-,"￥1,000～￥1,999",2024年6月9日
17002503,秋吉 野々市店,焼き鳥、串揚げ、居酒屋,3.03,21,https://tabelog.com/ishikawa/A1702/A170203/17002503/,石川県/野々市市/押越/2-64,36.5392771071647,136.60641820526658,火・水・木・金・土・日/11:00 - 22:00/月/定休日,予約可,"￥2,000～￥2,999",-,
17004716,すし処行栄,寿司,3.03,5,https://tabelog.com/ishikawa/A1702/A170203/17004716/,石川県/野々市市/押越/2-41-2,36.54065420716421,136.6076295352796,火・水・木・金・土・日/11:00 - 14:00/17:00 - 22:00/月/定休日 ■ 定休日/月曜（祝日の場合は翌日）,,"￥6,000～￥7,999","￥1,000～￥1,999",
17009596,魚串と手羽先の大衆居酒屋 和傘,居酒屋、かに、海鮮,3.03,3,https://tabelog.com/ishikawa/A1702/A170203/17009596/,石川県/野々市市/押越/2-60,36.53962542784046,136.6069441235717,月・水・木・金・土・日/17:00 - 01:00/火/定休日 ■ 営業時間/（お客様がいない場合早閉めしている場合もございます。）/姉妹店Yell Cafeで二次会も◎カクテルパフォーマンスの出張もOK！詳しくはエールカフェを検索/■ 定休日/+1日不定休あり （予約、祝前日は営業）,予約可,"￥3,000～￥3,999",-,2015年6月9日
17005521,モスバーガー 野々市押越店,ハンバーガー,3.01,7,https://tabelog.com/ishikawa/A1702/A170203/17005521/,石川県/野々市市/押越/1-203,36.540790937165035,136.61050179527902,月・火・水・木・金・土・日・祝日/07:00 - 00:00,,-,～￥999,
17005682,しあわせ酒場　梟,居酒屋,3.01,3,https://tabelog.com/ishikawa/A1702/A170203/17005682/,石川県/野々市市/押越/2-60,36.53962867716464,136.60694268526976,火・水・木・金・土・日・祝日・祝前日/11:30 - 00:00/L.O. 23:00/月/定休日 ■ 営業時間/【火～日・祝・祝前】通常11：30～00：00（L.O.23：00）/【火～土】ランチ11：30～14：30/■ 定休日/月曜日※祝日と定休日が重なった場合、火曜日が休みとなります。/5名様以上でご利用の場合は営業可。＜予約要＞,,-,-,
17004339,ノエル,喫茶店,3.01,1,https://tabelog.com/ishikawa/A1702/A170203/17004339/,石川県/野々市市/押越/2-52,36.54034370039541,136.60779928614664,,,-,-,
17012821,スーパーマーケット バロー 押越店,コンビニ・スーパー,0.0, - ,https://tabelog.com/ishikawa/A1702/A170203/17012821/,石川県/野々市市/押越/1-199,36.54025863636001,136.61051759411185,,,-,-,
17012966,北欧倶楽部 バロー押越店,パン,0.0, - ,https://tabelog.com/ishikawa/A1702/A170203/17012966/,石川県/野々市市/押越/1-199/スーパーマーケット バロー押越店,36.54035929996547,136.61047824071926,月・火・水・木・金/10:00 - 21:00/土・日/09:00 - 21:00 ■ 定休日/不定休(スーパーマーケット バロー押越店に準ずる),,-,-,
17007700,シエンブラン,パン、ベーグル,3.39,59,https://tabelog.com/ishikawa/A1702/A170203/17007700/,石川県/野々市市/押野/1-393/ピーノパラッツオ 103,36.542190297166385,136.61750492528822,月・火・水・木・金・土・日/08:00 - 19:00/祝日/定休日 ■ 定休日/第1第3日曜,予約不可,-,-,2012年5月22日
17001482,ビストロ ウールー,フレンチ、イタリアン,3.31,55,https://tabelog.com/ishikawa/A1702/A170203/17001482/,石川県/野々市市/押野/2-178,36.5410765371664,136.61535625527847,火・水・木・金・土・日/11:30 - 14:00/18:00 - 21:30/月/定休日,予約可,"￥2,000～￥2,999","￥1,000～￥1,999",
17014460,1/3 HAMBURGER FACTORY 野々市店,ハンバーガー,3.29,18,https://tabelog.com/ishikawa/A1702/A170203/17014460/,石川県/野々市市/押野/6-105,36.546189537164175,136.61853829532788,11:00 - 21:00 ・不定休。/・BAR営業→毎週木金土 20:00〜24:00/当日の営業時間等の詳細はInstagramにて毎日お知らせ中。,予約可,"￥2,000～￥2,999","￥1,000～￥1,999",2024年3月25日
17005785,かず味,日本料理,3.28,30,https://tabelog.com/ishikawa/A1702/A170203/17005785/,石川県/野々市市/押野/1-61,36.54344576716412,136.6129322853041,月・火・水・木・金・土/11:30 - 14:00/日・祝日/定休日 ■ 営業時間/以前は夜の部の営業もあったようですが、今はお昼のランチのみ,予約不可,-,～￥999,
17011266,九州うまかもん酒場 おおた商店,居酒屋、もつ鍋、鳥料理,3.23,19,https://tabelog.com/ishikawa/A1702/A170203/17011266/,石川県/野々市市/押野/1-363,36.54301278716575,136.61717727529677,火・水・木・金・土・日/17:30 - 01:00/L.O. 料理00:00 ドリンク00:30/月/定休日 ■ 定休日/※月曜祝日の場合火曜休み,予約可,"￥4,000～￥4,999","￥1,000～￥1,999",2018年7月27日
17014958,めいぷるキッチン,洋食,3.08,7,https://tabelog.com/ishikawa/A1702/A170203/17014958/,石川県/野々市市/押野/4-234-2,36.538235567169686,136.62001029524652,月・火・木・金・土・日/09:00 - 15:00/水/定休日 朝カレー：9:00〜11:00/昼ランチ：11:00〜15:00,,-,"￥1,000～￥1,999",2024年12月11日
17003568,ひょうたん,居酒屋、おでん,3.06,8,https://tabelog.com/ishikawa/A1702/A170203/17003568/,石川県/野々市市/押野/4-122-1,36.54182100716755,136.62044223528244,月・火・木・金・土・日/17:00 - 21:00/水/定休日,予約可,"￥2,000～￥2,999",-,
17011735,元祖からあげ本舗 マルフク 押野店,からあげ,3.04,9,https://tabelog.com/ishikawa/A1702/A170203/17011735/,石川県/野々市市/押野/6-1,36.54677948716345,136.61745175533463,10:30 - 21:00 ■ 定休日/無休（年末年始は除く）,予約可,-,-,
17001995,なかなか,焼肉,3.04,4,https://tabelog.com/ishikawa/A1702/A170203/17001995/,石川県/野々市市/押野/3-51,36.538624571674646,136.6156654120175,,予約可,-,-,
17009133,星乃珈琲店 金沢押野店,喫茶店,3.03,41,https://tabelog.com/ishikawa/A1702/A170203/17009133/,石川県/野々市市/押野/6-6,36.54646709716383,136.61802009533108,07:00 - 22:00/L.O. 21:30 ■ 定休日/不定休,,-,～￥999,
17005786,暫,日本料理,3.03,8,https://tabelog.com/ishikawa/A1702/A170203/17005786/,石川県/野々市市/押野/7-69,36.54419465716343,136.61226232531214,,予約可,"￥5,000～￥5,999",-,
17010404,きむら屋,海鮮、郷土料理,3.03,7,https://tabelog.com/ishikawa/A1702/A170203/17010404/,石川県/野々市市/押野/2-204,36.54014448716686,136.61494911526935,,,-,-,
17011734,すず乃や,居酒屋,3.02,3,https://tabelog.com/ishikawa/A1702/A170203/17011734/,石川県/野々市市/押野/6-172,36.54437349716532,136.61851428530957,月・火・水・木・金・土/17:30 - 23:00/L.O. 22:30/日/定休日,予約可,"￥5,000～￥5,999",-,2018年12月3日
17005693,大和屋 金沢店,その他,3.02,3,https://tabelog.com/ishikawa/A1702/A170203/17005693/,石川県/野々市市/押野/1-367,36.54254773716595,136.6168660552923,月・火・水・金・土・日/10:00 - 19:00/木/定休日,,-,-,
17001673,さかい,焼き鳥,3.02,3,https://tabelog.com/ishikawa/A1702/A170203/17001673/,石川県/野々市市/押野/6-59,36.54616191716382,136.61740541532842,月・火・水・木・金・土/11:30 - 13:30/17:30 - 22:00/日・祝日/定休日,,-,-,
17000458,くつろぎダイニング とりあえず吾平 押野店,居酒屋、創作料理,3.01,11,https://tabelog.com/ishikawa/A1702/A170203/17000458/,石川県/野々市市/押野/6-110,36.54567276716468,136.61914108532227,月・火・水・木・日・祝日/17:00 - 23:00/L.O. 料理22:00 ドリンク22:30/金・土・祝前日/17:00 - 00:00/L.O. 23:30,予約可,"￥2,000～￥2,999",-,
17012201,ほっかほっか亭 押野店,弁当,3.0,3,https://tabelog.com/ishikawa/A1702/A170203/17012201/,石川県/野々市市/押野/1-322,36.54234205716599,136.61657410529043,,,-,-,
17013957,のののんのん,カフェ,3.0,3,https://tabelog.com/ishikawa/A1702/A170203/17013957/,石川県/野々市市/押野/3-93,36.5391083363626,136.61636969409614,月・火・木・金・土・日/11:00 - 17:00/水/定休日,,-,-,
17014900,フードトラック リトルキッチン KG,弁当,3.0,2,https://tabelog.com/ishikawa/A1702/A170203/17014900/,石川県/野々市市/押野/2-178/ビストロ ウールー,36.54108119716641,136.61540533527847,木・金/11:30 - 14:00/月・火・水・土・日/定休日,,-,-,2024年10月17日
17014782,たい焼き庵 祭,たい焼き・大判焼き,0.0,2,https://tabelog.com/ishikawa/A1702/A170203/17014782/,石川県/野々市市/押野/7-62,36.54465834716328,136.61269063531654,月・火・木・金・土・日/10:00 - 16:00/水/定休日,,-,-,2024年4月18日
17015620,3℃ream 石川野々市店,スイーツ,0.0,2,https://tabelog.com/ishikawa/A1702/A170203/17015620/,石川県/野々市市/押野/6-198/WIN97 B,36.54433383716559,136.61929539530863,月・木・金・土・日/11:00 - 18:00/火・水/定休日,,-,-,2025年12月18日
17013320,トップネ,韓国料理,0.0,2,https://tabelog.com/ishikawa/A1702/A170203/17013320/,石川県/野々市市/押野/6-198,36.544329237165584,136.61927509530858,11:00 - 19:00,予約可,-,～￥999,2022年3月10日
17012822,セブンイレブン 野々市押野2丁目店,コンビニ・スーパー,0.0,1,https://tabelog.com/ishikawa/A1702/A170203/17012822/,石川県/野々市市/押野/2-85,36.53932682716642,136.61194403526318,,,-,-,
17003236,なかなか亭,すき焼き、しゃぶしゃぶ,0.0, - ,https://tabelog.com/ishikawa/A1702/A170203/17003236/,石川県/野々市市/押野/3-51,36.538622987168125,136.61586562525335,,,-,-,
17014052,Curry&Coffee CACHETTE,カレー,0.0, - ,https://tabelog.com/ishikawa/A1702/A170203/17014052/,石川県/野々市市/押野/7-62,36.54455860915847,136.61254676447362,月・火・木・金・土・日/11:00 - 14:00/水/定休日,,-,-,
17002834,あい・あい,喫茶店,0.0, - ,https://tabelog.com/ishikawa/A1702/A170203/17002834/,石川県/野々市市/押野/2-234-2,36.539862257167,136.61482204526658,,,-,-,
17014079,PASTIFICIO PERE,パスタ、イタリアン,3.27,24,https://tabelog.com/ishikawa/A1702/A170203/17014079/,石川県/野々市市/上林/3-56,36.506104057184935,136.60380357493332,,予約可,-,-,2023年7月25日
17012909,BRICKS,カフェ,3.06,6,https://tabelog.com/ishikawa/A1702/A170203/17012909/,石川県/野々市市/上林/3-66-1,36.505870307185184,136.60411987493075,月・火・水・木・金・土/10:00 - 19:00/日/10:00 - 18:00 ■ 定休日/不定休,,-,-,2020年7月7日
17007830,ぶった農産,オーガニック,3.03,7,https://tabelog.com/ishikawa/A1702/A170203/17007830/,石川県/野々市市/上林/2-162-1,36.50114863638191,136.60130589372326,月・火・水・木・金・土/09:00 - 17:00/日/定休日,,-,-,
17012045,ガスト 野々市店,ファミレス、カフェ,3.01,4,https://tabelog.com/ishikawa/A1702/A170203/17012045/,石川県/野々市市/上林/4-704,36.503936136381846,136.60666279374763,月・火・水・木・金・土・日・祝日/09:00 - 23:30,予約不可,"￥1,000～￥1,999","￥1,000～￥1,999",2020年1月24日
17013294,四十萬谷本舗 金沢南店,その他,4.52,3,https://tabelog.com/ishikawa/A1702/A170203/17013294/,石川県/野々市市/上林/5-5,36.50115538718864,136.6055839648821,月・火・木・金・土・日/10:00 - 18:00/水/定休日,,-,-,1993年
17000700,すし処 めくみ,寿司,3.68,505,https://tabelog.com/ishikawa/A1702/A170203/17000700/,石川県/野々市市/下林/4-48,36.52157049717454,136.60199876509083,火・水・木・金・土/18:00 - 20:00/20:30 - 22:30/日/12:00 - 14:00/18:00 - 20:00/20:30 - 22:30/月/定休日 ■ 営業時間/[火～土]/18:00～20:30(最終入店)/[日]/12:00(最終入店) /18:00～20:30(最終入店)/■ 定休日/月曜・火曜不定休,完全予約制,"￥40,000～￥49,999","￥40,000～￥49,999",
17013055,ジョニーのビリヤニ,インド料理、インドカレー、パキスタン料理,3.61,217,https://tabelog.com/ishikawa/A1702/A170203/17013055/,石川県/野々市市/白山町/4-1/イオンタウン野々市,36.527384136369236,136.61383179397947,月・火・水・木/11:00 - 15:00/金・土/11:00 - 19:00/日・祝日・祝前日/11:00 - 19:00/L.O. 14:00/祝後日/11:00 - 15:00/L.O. 14:00,予約可,"￥1,000～￥1,999","￥1,000～￥1,999",2021年9月1日
17011468,とんかつ専門店 かつ坊,とんかつ,3.56,79,https://tabelog.com/ishikawa/A1702/A170203/17011468/,石川県/野々市市/高橋町/14-43/グリーンハイツⅡ 1F,36.53215128717517,136.6250970451815,水・木・金・土・日/11:30 - 14:30/17:30 - 20:30/月・火/定休日,予約可,"￥2,000～￥2,999","￥1,000～￥1,999",2018年11月1日
17001994,但馬や,焼肉,3.53,21,https://tabelog.com/ishikawa/A1702/A170203/17001994/,石川県/野々市市/粟田/4-150,36.5172458471805,136.61211015504003,月・火・水・金・土・日/17:00 - 22:30/L.O. 22:00/木/定休日,予約可,"￥4,000～￥4,999",-,
17006708,自家製麺 TERRA,ラーメン,3.53,205,https://tabelog.com/ishikawa/A1702/A170203/17006708/,石川県/野々市市/扇ヶ丘9-20/扇ヶ丘ビル1Ｆ横,36.527197936374286,136.62932679396675,火・水・土/11:00 - 14:00/L.O. 料理13:45/17:30 - 20:00/L.O. 料理19:45/日/11:00 - 14:00/L.O. 料理13:45/月・木・金/定休日,予約不可,"￥1,000～￥1,999","￥1,000～￥1,999",2010年6月5日
17011967,ななや,居酒屋、牛料理、揚げ物,3.51,45,https://tabelog.com/ishikawa/A1702/A170203/17011967/,石川県/野々市市/下林/3-287-1,36.52375477717265,136.600410415114,火・水・木・金・土/11:30 - 14:00/L.O. 13:30/17:30 - 23:00/L.O. 22:30/月・日/定休日,予約可,-,"￥1,000～￥1,999",2019年6月6日
17013650,マルガーラボ 野々市店,ジェラート・アイスクリーム、洋菓子,3.46,137,https://tabelog.com/ishikawa/A1702/A170203/17013650/,石川県/野々市市/本町/6-370,36.535032007168546,136.61004424522116,月・火・木・金・土・日/11:00 - 17:00/水/定休日,予約不可,～￥999,-,
17013361,中華そば ブラボー,ラーメン,3.44,81,https://tabelog.com/ishikawa/A1702/A170203/17013361/,石川県/野々市市/稲荷/4-85,36.53681441716512,136.60283111524424,月・火・水・木・金・土/11:00 - 15:00/L.O. 14:30/18:00 - 21:30/L.O. 21:00/日/定休日 ■ 定休日/第1・3月曜日,予約不可,"￥1,000～￥1,999","￥1,000～￥1,999",2022年4月5日
17009973,NiOR,パン,3.43,85,https://tabelog.com/ishikawa/A1702/A170203/17009973/,石川県/野々市市/白山町/392,36.52795829717358,136.6117569051485,月・火・金/10:00 - 19:00/土・日・祝日/09:00 - 19:00/水・木/定休日 ■ 営業時間/※売り切れ次第終了/■ 定休日/不定休,予約不可,-,-,2016年2月
17013675,ramen 雨燕,ラーメン,0.0,67,https://tabelog.com/ishikawa/A1702/A170203/17013675/,石川県/野々市市/高橋町/5-28,36.53235468717481,136.62436722518407,月・火・水・金・土・日/11:00 - 14:30/18:00 - 22:00/木/定休日 ■ 定休日/木曜日、第2・3火曜日,予約不可,"￥1,000～￥1,999","￥1,000～￥1,999",2022年11月1日
17010254,金沢 中村酒造株式会社,その他,4.52,3,https://tabelog.com/ishikawa/A1702/A170203/17010254/,石川県/野々市市/清金/2-1,36.51752723717564,136.59742723505317,月・火・水・木・金/09:00 - 16:00/土・日・祝日/定休日,,-,-,1870年
17000700,すし処 めくみ,寿司,3.68,505,https://tabelog.com/ishikawa/A1702/A170203/17000700/,石川県/野々市市/下林/4-48,36.52157049717454,136.60199876509083,火・水・木・金・土/18:00 - 20:00/20:30 - 22:30/日/12:00 - 14:00/18:00 - 20:00/20:30 - 22:30/月/定休日 ■ 営業時間/[火～土]/18:00～20:30(最終入店)/[日]/12:00(最終入店) /18:00～20:30(最終入店)/■ 定休日/月曜・火曜不定休,完全予約制,"￥40,000～￥49,999","￥40,000～￥49,999",
17013055,ジョニーのビリヤニ,インド料理、インドカレー、パキスタン料理,3.61,217,https://tabelog.com/ishikawa/A1702/A170203/17013055/,石川県/野々市市/白山町/4-1/イオンタウン野々市,36.527384136369236,136.61383179397947,月・火・水・木/11:00 - 15:00/金・土/11:00 - 19:00/日・祝日・祝前日/11:00 - 19:00/L.O. 14:00/祝後日/11:00 - 15:00/L.O. 14:00,予約可,"￥1,000～￥1,999","￥1,000～￥1,999",2021年9月1日
17011468,とんかつ専門店 かつ坊,とんかつ,3.56,79,https://tabelog.com/ishikawa/A1702/A170203/17011468/,石川県/野々市市/高橋町/14-43/グリーンハイツⅡ 1F,36.53215128717517,136.6250970451815,水・木・金・土・日/11:30 - 14:30/17:30 - 20:30/月・火/定休日,予約可,"￥2,000～￥2,999","￥1,000～￥1,999",2018年11月1日
17001994,但馬や,焼肉,3.53,21,https://tabelog.com/ishikawa/A1702/A170203/17001994/,石川県/野々市市/粟田/4-150,36.5172458471805,136.61211015504003,月・火・水・金・土・日/17:00 - 22:30/L.O. 22:00/木/定休日,予約可,"￥4,000～￥4,999",-,
17006708,自家製麺 TERRA,ラーメン,3.53,205,https://tabelog.com/ishikawa/A1702/A170203/17006708/,石川県/野々市市/扇ヶ丘9-20/扇ヶ丘ビル1Ｆ横,36.527197936374286,136.62932679396675,火・水・土/11:00 - 14:00/L.O. 料理13:45/17:30 - 20:00/L.O. 料理19:45/日/11:00 - 14:00/L.O. 料理13:45/月・木・金/定休日,予約不可,"￥1,000～￥1,999","￥1,000～￥1,999",2010年6月5日
17011967,ななや,居酒屋、牛料理、揚げ物,3.51,45,https://tabelog.com/ishikawa/A1702/A170203/17011967/,石川県/野々市市/下林/3-287-1,36.52375477717265,136.600410415114,火・水・木・金・土/11:30 - 14:00/L.O. 13:30/17:30 - 23:00/L.O. 22:30/月・日/定休日,予約可,-,"￥1,000～￥1,999",2019年6月6日
17013650,マルガーラボ 野々市店,ジェラート・アイスクリーム、洋菓子,3.46,137,https://tabelog.com/ishikawa/A1702/A170203/17013650/,石川県/野々市市/本町/6-370,36.535032007168546,136.61004424522116,月・火・木・金・土・日/11:00 - 17:00/水/定休日,予約不可,～￥999,-,
17013361,中華そば ブラボー,ラーメン,3.44,81,https://tabelog.com/ishikawa/A1702/A170203/17013361/,石川県/野々市市/稲荷/4-85,36.53681441716512,136.60283111524424,月・火・水・木・金・土/11:00 - 15:00/L.O. 14:30/18:00 - 21:30/L.O. 21:00/日/定休日 ■ 定休日/第1・3月曜日,予約不可,"￥1,000～￥1,999","￥1,000～￥1,999",2022年4月5日
17009973,NiOR,パン,3.43,85,https://tabelog.com/ishikawa/A1702/A170203/17009973/,石川県/野々市市/白山町/392,36.52795829717358,136.6117569051485,月・火・金/10:00 - 19:00/土・日・祝日/09:00 - 19:00/水・木/定休日 ■ 営業時間/※売り切れ次第終了/■ 定休日/不定休,予約不可,-,-,2016年2月
17013675,ramen 雨燕,ラーメン,0.0,67,https://tabelog.com/ishikawa/A1702/A170203/17013675/,石川県/野々市市/高橋町/5-28,36.53235468717481,136.62436722518407,月・火・水・金・土・日/11:00 - 14:30/18:00 - 22:00/木/定休日 ■ 定休日/木曜日、第2・3火曜日,予約不可,"￥1,000～￥1,999","￥1,000～￥1,999",2022年11月1日
17006581,シェ クープル,洋食、オムライス、カフェ,3.4,108,https://tabelog.com/ishikawa/A1702/A170203/17006581/,石川県/野々市市/位川/273/KSビル 1F,36.52350916717476,136.60654442510722,月・火・金/11:30 - 15:00/L.O. 14:15/土・日/11:30 - 20:30/L.O. 19:45/祝日/11:30 - 16:00/L.O. 料理14:15 ドリンク15:15/水・木/定休日 2025年12月31日(水)〜2026年1月8日(木)まで冬期休業,予約不可,"￥1,000～￥1,999","￥1,000～￥1,999",2010年11月13日
17001119,イルガッビアーノ,イタリアン,3.28,42,https://tabelog.com/ishikawa/A1702/A170203/17001119/,石川県/野々市市/位川/273/KSビル 1F,36.52351909717477,136.60661570510726,■ 定休日/水曜日,予約可,"￥3,000～￥3,999",-,
17000700,すし処 めくみ,寿司,4.52,505,https://tabelog.com/ishikawa/A1702/A170203/17000700/,石川県/野々市市/下林/4-48,36.52157049717454,136.60199876509083,火・水・木・金・土/18:00 - 20:00/20:30 - 22:30/日/12:00 - 14:00/18:00 - 20:00/20:30 - 22:30/月/定休日 ■ 営業時間/[火～土]/18:00～20:30(最終入店)/[日]/12:00(最終入店) /18:00～20:30(最終入店)/■ 定休日/月曜・火曜不定休,完全予約制,"￥40,000～￥49,999","￥40,000～￥49,999",
17013055,ジョニーのビリヤニ,インド料理、インドカレー、パキスタン料理,3.68,217,https://tabelog.com/ishikawa/A1702/A170203/17013055/,石川県/野々市市/白山町/4-1/イオンタウン野々市,36.527384136369236,136.61383179397947,月・火・水・木/11:00 - 15:00/金・土/11:00 - 19:00/日・祝日・祝前日/11:00 - 19:00/L.O. 14:00/祝後日/11:00 - 15:00/L.O. 14:00,予約可,"￥1,000～￥1,999","￥1,000～￥1,999",2021年9月1日
17011468,とんかつ専門店 かつ坊,とんかつ,3.61,79,https://tabelog.com/ishikawa/A1702/A170203/17011468/,石川県/野々市市/高橋町/14-43/グリーンハイツⅡ 1F,36.53215128717517,136.6250970451815,水・木・金・土・日/11:30 - 14:30/17:30 - 20:30/月・火/定休日,予約可,"￥2,000～￥2,999","￥1,000～￥1,999",2018年11月1日
17001994,但馬や,焼肉,3.56,21,https://tabelog.com/ishikawa/A1702/A170203/17001994/,石川県/野々市市/粟田/4-150,36.5172458471805,136.61211015504003,月・火・水・金・土・日/17:00 - 22:30/L.O. 22:00/木/定休日,予約可,"￥4,000～￥4,999",-,
17006708,自家製麺 TERRA,ラーメン,3.53,205,https://tabelog.com/ishikawa/A1702/A170203/17006708/,石川県/野々市市/扇ヶ丘9-20/扇ヶ丘ビル1Ｆ横,36.527197936374286,136.62932679396675,火・水・土/11:00 - 14:00/L.O. 料理13:45/17:30 - 20:00/L.O. 料理19:45/日/11:00 - 14:00/L.O. 料理13:45/月・木・金/定休日,予約不可,"￥1,000～￥1,999","￥1,000～￥1,999",2010年6月5日
17011967,ななや,居酒屋、牛料理、揚げ物,3.53,45,https://tabelog.com/ishikawa/A1702/A170203/17011967/,石川県/野々市市/下林/3-287-1,36.52375477717265,136.600410415114,火・水・木・金・土/11:30 - 14:00/L.O. 13:30/17:30 - 23:00/L.O. 22:30/月・日/定休日,予約可,-,"￥1,000～￥1,999",2019年6月6日
17013650,マルガーラボ 野々市店,ジェラート・アイスクリーム、洋菓子,3.51,137,https://tabelog.com/ishikawa/A1702/A170203/17013650/,石川県/野々市市/本町/6-370,36.535032007168546,136.61004424522116,月・火・木・金・土・日/11:00 - 17:00/水/定休日,予約不可,～￥999,-,
17013361,中華そば ブラボー,ラーメン,3.46,81,https://tabelog.com/ishikawa/A1702/A170203/17013361/,石川県/野々市市/稲荷/4-85,36.53681441716512,136.60283111524424,月・火・水・木・金・土/11:00 - 15:00/L.O. 14:30/18:00 - 21:30/L.O. 21:00/日/定休日 ■ 定休日/第1・3月曜日,予約不可,"￥1,000～￥1,999","￥1,000～￥1,999",2022年4月5日
17009973,NiOR,パン,3.44,85,https://tabelog.com/ishikawa/A1702/A170203/17009973/,石川県/野々市市/白山町/392,36.52795829717358,136.6117569051485,月・火・金/10:00 - 19:00/土・日・祝日/09:00 - 19:00/水・木/定休日 ■ 営業時間/※売り切れ次第終了/■ 定休日/不定休,予約不可,-,-,2016年2月
17013675,ramen 雨燕,ラーメン,3.43,67,https://tabelog.com/ishikawa/A1702/A170203/17013675/,石川県/野々市市/高橋町/5-28,36.53235468717481,136.62436722518407,月・火・水・金・土・日/11:00 - 14:30/18:00 - 22:00/木/定休日 ■ 定休日/木曜日、第2・3火曜日,予約不可,"￥1,000～￥1,999","￥1,000～￥1,999",2022年11月1日
17013278,つばきの郷 日々,食堂、日本料理、レストラン,3.05,5,https://tabelog.com/ishikawa/A1702/A170203/17013278/,石川県/野々市市/郷/2-11,36.53243684716277,136.58673488521129,月・火・木・金・土/11:00 - 16:00/L.O. 14:30/水・日・祝日/定休日 ■ 営業時間/飲食 11:00～16:00(L.O.14:30)/直売 9:30～17:00,,-,"￥1,000～￥1,999",
17013281,パン工房 clover,パン,3.0,2,https://tabelog.com/ishikawa/A1702/A170203/17013281/,石川県/野々市市/郷/2-38,36.53156653716319,136.5863129752028,月・火・金・土/11:30 - 14:00/水・木・日/定休日 ■ 営業時間/※売り切れ次第終了,,～￥999,～￥999,2021年9月25日
17000700,すし処 めくみ,寿司,4.52,505,https://tabelog.com/ishikawa/A1702/A170203/17000700/,石川県/野々市市/下林/4-48,36.52157049717454,136.60199876509083,火・水・木・金・土/18:00 - 20:00/20:30 - 22:30/日/12:00 - 14:00/18:00 - 20:00/20:30 - 22:30/月/定休日 ■ 営業時間/[火～土]/18:00～20:30(最終入店)/[日]/12:00(最終入店) /18:00～20:30(最終入店)/■ 定休日/月曜・火曜不定休,完全予約制,"￥40,000～￥49,999","￥40,000～￥49,999",
17013055,ジョニーのビリヤニ,インド料理、インドカレー、パキスタン料理,3.68,217,https://tabelog.com/ishikawa/A1702/A170203/17013055/,石川県/野々市市/白山町/4-1/イオンタウン野々市,36.527384136369236,136.61383179397947,月・火・水・木/11:00 - 15:00/金・土/11:00 - 19:00/日・祝日・祝前日/11:00 - 19:00/L.O. 14:00/祝後日/11:00 - 15:00/L.O. 14:00,予約可,"￥1,000～￥1,999","￥1,000～￥1,999",2021年9月1日
17011468,とんかつ専門店 かつ坊,とんかつ,3.61,79,https://tabelog.com/ishikawa/A1702/A170203/17011468/,石川県/野々市市/高橋町/14-43/グリーンハイツⅡ 1F,36.53215128717517,136.6250970451815,水・木・金・土・日/11:30 - 14:30/17:30 - 20:30/月・火/定休日,予約可,"￥2,000～￥2,999","￥1,000～￥1,999",2018年11月1日
17001994,但馬や,焼肉,3.56,21,https://tabelog.com/ishikawa/A1702/A170203/17001994/,石川県/野々市市/粟田/4-150,36.5172458471805,136.61211015504003,月・火・水・金・土・日/17:00 - 22:30/L.O. 22:00/木/定休日,予約可,"￥4,000～￥4,999",-,
17006708,自家製麺 TERRA,ラーメン,3.53,205,https://tabelog.com/ishikawa/A1702/A170203/17006708/,石川県/野々市市/扇ヶ丘9-20/扇ヶ丘ビル1Ｆ横,36.527197936374286,136.62932679396675,火・水・土/11:00 - 14:00/L.O. 料理13:45/17:30 - 20:00/L.O. 料理19:45/日/11:00 - 14:00/L.O. 料理13:45/月・木・金/定休日,予約不可,"￥1,000～￥1,999","￥1,000～￥1,999",2010年6月5日
17011967,ななや,居酒屋、牛料理、揚げ物,3.53,45,https://tabelog.com/ishikawa/A1702/A170203/17011967/,石川県/野々市市/下林/3-287-1,36.52375477717265,136.600410415114,火・水・木・金・土/11:30 - 14:00/L.O. 13:30/17:30 - 23:00/L.O. 22:30/月・日/定休日,予約可,-,"￥1,000～￥1,999",2019年6月6日
17013650,マルガーラボ 野々市店,ジェラート・アイスクリーム、洋菓子,3.51,137,https://tabelog.com/ishikawa/A1702/A170203/17013650/,石川県/野々市市/本町/6-370,36.535032007168546,136.61004424522116,月・火・木・金・土・日/11:00 - 17:00/水/定休日,予約不可,～￥999,-,
17013361,中華そば ブラボー,ラーメン,3.46,81,https://tabelog.com/ishikawa/A1702/A170203/17013361/,石川県/野々市市/稲荷/4-85,36.53681441716512,136.60283111524424,月・火・水・木・金・土/11:00 - 15:00/L.O. 14:30/18:00 - 21:30/L.O. 21:00/日/定休日 ■ 定休日/第1・3月曜日,予約不可,"￥1,000～￥1,999","￥1,000～￥1,999",2022年4月5日
17009973,NiOR,パン,3.44,85,https://tabelog.com/ishikawa/A1702/A170203/17009973/,石川県/野々市市/白山町/392,36.52795829717358,136.6117569051485,月・火・金/10:00 - 19:00/土・日・祝日/09:00 - 19:00/水・木/定休日 ■ 営業時間/※売り切れ次第終了/■ 定休日/不定休,予約不可,-,-,2016年2月
17013675,ramen 雨燕,ラーメン,3.43,67,https://tabelog.com/ishikawa/A1702/A170203/17013675/,石川県/野々市市/高橋町/5-28,36.53235468717481,136.62436722518407,月・火・水・金・土・日/11:00 - 14:30/18:00 - 22:00/木/定休日 ■ 定休日/木曜日、第2・3火曜日,予約不可,"￥1,000～￥1,999","￥1,000～￥1,999",2022年11月1日
17014230,焼肉酒場 うしっぽ,焼肉,3.16,18,https://tabelog.com/ishikawa/A1702/A170203/17014230/,石川県/野々市市/郷町/280-1,36.526472717166705,136.58717859515073,11:30 - 14:30/L.O. 14:00/17:00 - 02:00/L.O. 01:30 ■ 定休日/不定休,予約可,"￥6,000～￥7,999",-,2023年10月12日
17012491,焼肉ホルモン光 松任店,焼肉、ホルモン,3.06,13,https://tabelog.com/ishikawa/A1702/A170203/17012491/,石川県/野々市市/郷町/290-1,36.526735107166324,136.58651117515387,月・火・水・木・金・土・日・祝日・祝前日・祝後日/11:30 - 01:00,予約可,"￥3,000～￥3,999",-,
17008849,はま寿司 8号野々市店,回転寿司,3.03,20,https://tabelog.com/ishikawa/A1702/A170203/17008849/,石川県/野々市市/郷町/285-1,36.52623113636135,136.5867844939868,11:00 - 23:00/L.O. 22:45,予約不可,"￥1,000～￥1,999","￥1,000～￥1,999",2014年3月10日
17001205,8番らーめん 専福寺店,ラーメン,3.02,18,https://tabelog.com/ishikawa/A1702/A170203/17001205/,石川県/野々市市/郷町/293-1,36.5259543671667,136.58612977514622,11:00 - 02:00,予約不可,～￥999,～￥999,
17004366,フリーポート,喫茶店,3.01,1,https://tabelog.com/ishikawa/A1702/A170203/17004366/,石川県/野々市市/郷町/308,36.52618026716637,136.5855417951489,,,-,-,
17000700,すし処 めくみ,寿司,4.52,505,https://tabelog.com/ishikawa/A1702/A170203/17000700/,石川県/野々市市/下林/4-48,36.52157049717454,136.60199876509083,火・水・木・金・土/18:00 - 20:00/20:30 - 22:30/日/12:00 - 14:00/18:00 - 20:00/20:30 - 22:30/月/定休日 ■ 営業時間/[火～土]/18:00～20:30(最終入店)/[日]/12:00(最終入店) /18:00～20:30(最終入店)/■ 定休日/月曜・火曜不定休,完全予約制,"￥40,000～￥49,999","￥40,000～￥49,999",
17013055,ジョニーのビリヤニ,インド料理、インドカレー、パキスタン料理,3.68,217,https://tabelog.com/ishikawa/A1702/A170203/17013055/,石川県/野々市市/白山町/4-1/イオンタウン野々市,36.527384136369236,136.61383179397947,月・火・水・木/11:00 - 15:00/金・土/11:00 - 19:00/日・祝日・祝前日/11:00 - 19:00/L.O. 14:00/祝後日/11:00 - 15:00/L.O. 14:00,予約可,"￥1,000～￥1,999","￥1,000～￥1,999",2021年9月1日
17011468,とんかつ専門店 かつ坊,とんかつ,3.61,79,https://tabelog.com/ishikawa/A1702/A170203/17011468/,石川県/野々市市/高橋町/14-43/グリーンハイツⅡ 1F,36.53215128717517,136.6250970451815,水・木・金・土・日/11:30 - 14:30/17:30 - 20:30/月・火/定休日,予約可,"￥2,000～￥2,999","￥1,000～￥1,999",2018年11月1日
17001994,但馬や,焼肉,3.56,21,https://tabelog.com/ishikawa/A1702/A170203/17001994/,石川県/野々市市/粟田/4-150,36.5172458471805,136.61211015504003,月・火・水・金・土・日/17:00 - 22:30/L.O. 22:00/木/定休日,予約可,"￥4,000～￥4,999",-,
17006708,自家製麺 TERRA,ラーメン,3.53,205,https://tabelog.com/ishikawa/A1702/A170203/17006708/,石川県/野々市市/扇ヶ丘9-20/扇ヶ丘ビル1Ｆ横,36.527197936374286,136.62932679396675,火・水・土/11:00 - 14:00/L.O. 料理13:45/17:30 - 20:00/L.O. 料理19:45/日/11:00 - 14:00/L.O. 料理13:45/月・木・金/定休日,予約不可,"￥1,000～￥1,999","￥1,000～￥1,999",2010年6月5日
17011967,ななや,居酒屋、牛料理、揚げ物,3.53,45,https://tabelog.com/ishikawa/A1702/A170203/17011967/,石川県/野々市市/下林/3-287-1,36.52375477717265,136.600410415114,火・水・木・金・土/11:30 - 14:00/L.O. 13:30/17:30 - 23:00/L.O. 22:30/月・日/定休日,予約可,-,"￥1,000～￥1,999",2019年6月6日
17013650,マルガーラボ 野々市店,ジェラート・アイスクリーム、洋菓子,3.51,137,https://tabelog.com/ishikawa/A1702/A170203/17013650/,石川県/野々市市/本町/6-370,36.535032007168546,136.61004424522116,月・火・木・金・土・日/11:00 - 17:00/水/定休日,予約不可,～￥999,-,
17013361,中華そば ブラボー,ラーメン,3.46,81,https://tabelog.com/ishikawa/A1702/A170203/17013361/,石川県/野々市市/稲荷/4-85,36.53681441716512,136.60283111524424,月・火・水・木・金・土/11:00 - 15:00/L.O. 14:30/18:00 - 21:30/L.O. 21:00/日/定休日 ■ 定休日/第1・3月曜日,予約不可,"￥1,000～￥1,999","￥1,000～￥1,999",2022年4月5日
17009973,NiOR,パン,3.44,85,https://tabelog.com/ishikawa/A1702/A170203/17009973/,石川県/野々市市/白山町/392,36.52795829717358,136.6117569051485,月・火・金/10:00 - 19:00/土・日・祝日/09:00 - 19:00/水・木/定休日 ■ 営業時間/※売り切れ次第終了/■ 定休日/不定休,予約不可,-,-,2016年2月
17013675,ramen 雨燕,ラーメン,3.43,67,https://tabelog.com/ishikawa/A1702/A170203/17013675/,石川県/野々市市/高橋町/5-28,36.53235468717481,136.62436722518407,月・火・水・金・土・日/11:00 - 14:30/18:00 - 22:00/木/定休日 ■ 定休日/木曜日、第2・3火曜日,予約不可,"￥1,000～￥1,999","￥1,000～￥1,999",2022年11月1日
17007376,石窯パン工房 フレッシュベイク 野々市店,パン,3.28,55,https://tabelog.com/ishikawa/A1702/A170203/17007376/,石川県/野々市市/三納/1-9,36.518935147178226,136.60834105505975,火・水・木・金・土・日/07:00 - 19:30/月/定休日 ■ 定休日/第3火曜,予約不可,～￥999,-,2006年6月24日
17009549,カエデ珈琲,カフェ、ケーキ、喫茶店,3.25,54,https://tabelog.com/ishikawa/A1702/A170203/17009549/,石川県/野々市市/三納/3-63,36.52403238717538,136.60957578511034,09:00 - 23:00 ■ 営業時間/ケーキ販売/10:00〜22:00/■定休日/無休,予約可,-,～￥999,2015年4月27日
17009044,たい焼き工房 土九,たい焼き・大判焼き、和菓子、カフェ,3.09,49,https://tabelog.com/ishikawa/A1701/A170101/17009044/,石川県/野々市市/三納/2-178,36.523059987175465,136.60789199510174,■ 営業時間/10時〜(売り切れ次第終了)/■定休日/火曜日,予約可,-,～￥999,2014年5月3日
17001498,トゥール モンド シュシュ 野々市店,ケーキ,3.08,17,https://tabelog.com/ishikawa/A1702/A170203/17001498/,石川県/野々市市/三納/79街区1/アクロスプラザ野々市内,36.51643071576847,136.60928238862456,10:00 - 20:00 ■ 定休日/不定休,予約可,-,-,
17014214,焼肉みくりや,焼肉、ホルモン,3.08,9,https://tabelog.com/ishikawa/A1701/A170101/17014214/,石川県/野々市市/三納/1-144,36.51643060718026,136.60971791503349,月・火・水・木・金・土・日・祝日・祝前日・祝後日/11:00 - 15:00/L.O. 14:30/17:00 - 23:00/L.O. 22:30 ■ 定休日/不定休,予約可,"￥4,000～￥4,999","￥1,000～￥1,999",2023年9月23日
17010932,ヤハタすしべん 野々市市役所店,弁当、寿司、麺類,3.06,12,https://tabelog.com/ishikawa/A1702/A170203/17010932/,石川県/野々市市/三納/1-1/カメリア館 1F,36.51917214717835,136.6092115250615,06:00 - 22:00/L.O. 21:30,,-,"￥1,000～￥1,999",
17012662,cafe38 野々市店,カフェ,3.06,7,https://tabelog.com/ishikawa/A1702/A170203/17012662/,石川県/野々市市/三納/1-12,36.51960716717786,136.6085159950664,火・水・木・金・土・日/11:00 - 19:00/月/定休日,,-,"￥1,000～￥1,999",
17012570,炭火焼き鳥 とりいち,焼き鳥,3.06,5,https://tabelog.com/ishikawa/A1701/A170101/17012570/,石川県/野々市市/三納/2-177,36.5230282671756,136.60825692510116,月・火・水・木・日/17:00 - 01:00/金・土/17:00 - 03:00,予約可,"￥2,000～￥2,999",-,
17010298,大阪王将 野々市店,餃子、中華料理,3.04,28,https://tabelog.com/ishikawa/A1702/A170203/17010298/,石川県/野々市市/三納/2-104,36.52191464717667,136.6093930150891,月・水・木・金・土・日/11:00 - 22:00/L.O. 21:30/火/定休日,予約不可,"￥1,000～￥1,999","￥1,000～￥1,999",
17015258,YELL CAFE,イタリアン,3.04,2,https://tabelog.com/ishikawa/A1701/A170101/17015258/,石川県/野々市市/三納/3-3,36.52328497070827,136.60793479364108,月・水・木・金・土・日・祝日・祝前日・祝後日/18:00 - 03:00/L.O. 02:30/火/定休日 火曜日と+1日不定休あり/ご予約はお電話にてお願いします！,予約可,"￥2,000～￥2,999",-,2025年6月25日
17000615,スターバックス・コーヒー 金沢野々市店,カフェ,3.03,23,https://tabelog.com/ishikawa/A1702/A170203/17000615/,石川県/野々市市/三納/32街区-3,36.518298844487035,136.60834276710705,07:00 - 22:00,予約不可,～￥999,～￥999,2007年4月
17009983,鎌倉パスタ 金沢野々市店,パスタ、パン,3.03,18,https://tabelog.com/ishikawa/A1702/A170203/17009983/,石川県/野々市市/三納/1-47,36.51798547717888,136.60848922505005,11:00 - 23:00/L.O. 22:30 ■ 定休日/無休(1月1日のみ休み),予約可,"￥1,000～￥1,999","￥1,000～￥1,999",2015年12月18日
17011752,来来亭 野々市店,ラーメン,3.02,24,https://tabelog.com/ishikawa/A1701/A170101/17011752/,石川県/野々市市/三納/3-7,36.52323078717568,136.60890508510275,11:00 - 23:30 2025.5/12-5/15まで/店舗メンテナンスのため/定休日になります。/ご迷惑をおかけしますが/ご理解、ご協力の程/宜しくお願い致します。,予約不可,～￥999,"￥1,000～￥1,999",2019年8月8日
17007450,ゴーゴーカレー 丼丼 野々市市役所前スタジアム,カレー、カレーうどん,3.02,18,https://tabelog.com/ishikawa/A1702/A170203/17007450/,石川県/野々市市/三納/1-77/アクロスプラザ内,36.517404687179415,136.60900510504385,■ 営業時間/10:55～22:55(最終入店)/■ 定休日/年末年始,,～￥999,-,2012年2月5日
17005310,道とん堀 野々市店,お好み焼き、もんじゃ焼き、鉄板焼き,3.02,12,https://tabelog.com/ishikawa/A1702/A170203/17005310/,石川県/野々市市/三納/1-100/アクロスプラザ内,36.51743573309074,136.60911313963467,■ 営業時間/お電話にて直接店舗へお問合せください/■ 定休日/お電話にて直接店舗へお問合せください,予約可,"￥1,000～￥1,999",～￥999,
17012621,野々市横丁,うどん、洋食、肉料理,3.02,1,https://tabelog.com/ishikawa/A1702/A170203/17012621/,石川県/野々市市/三納/1-144,36.51674599017222,136.6103548937186,07:30 - 00:00,,-,～￥999,2020年12月22日
17015001,アルビス 野々市三納店,コンビニ・スーパー,3.02,1,https://tabelog.com/ishikawa/A1702/A170203/17015001/,石川県/野々市市/三納/1-77,36.518101147179436,136.61045103504986,09:00 - 22:00,,-,-,
17010869,焼肉 蔵 野々市店,焼肉,3.01,5,https://tabelog.com/ishikawa/A1702/A170203/17010869/,石川県/野々市市/三納/1-14-2,36.519882027177715,136.60862705506912,,予約可,-,-,
17011931,ほっともっと 野々市三納店,弁当,3.0,4,https://tabelog.com/ishikawa/A1702/A170203/17011931/,石川県/野々市市/三納/2-101-2,36.522363236370985,136.60932779393193,,予約可,～￥999,～￥999,
17011715,能登居酒屋 ちょんがり,居酒屋、郷土料理、おでん,0.0,1,https://tabelog.com/ishikawa/A1701/A170101/17011715/,石川県/野々市市/三納/2-178,36.522998357175496,136.6078770751011,月・火・水・木・金・土/17:00 - 00:00/日/定休日,予約可,-,-,
17012802,大阪屋ショップ 野々市三納店,コンビニ・スーパー,0.0, - ,https://tabelog.com/ishikawa/A1702/A170203/17012802/,石川県/野々市市/三納/1-193,36.51660613637444,136.60866409387424,,,-,-,
17009196,居酒屋 たかの,居酒屋,0.0, - ,https://tabelog.com/ishikawa/A1701/A170101/17009196/,石川県/野々市市/三納/2-178,36.5230509371754,136.6078516951014,月・火・木・金・土・日/17:00 - 22:30/水/定休日,,-,-,
17000700,すし処 めくみ,寿司,4.52,505,https://tabelog.com/ishikawa/A1702/A170203/17000700/,石川県/野々市市/下林/4-48,36.52157049717454,136.60199876509083,火・水・木・金・土/18:00 - 20:00/20:30 - 22:30/日/12:00 - 14:00/18:00 - 20:00/20:30 - 22:30/月/定休日 ■ 営業時間/[火～土]/18:00～20:30(最終入店)/[日]/12:00(最終入店) /18:00～20:30(最終入店)/■ 定休日/月曜・火曜不定休,完全予約制,"￥40,000～￥49,999","￥40,000～￥49,999",
17011967,ななや,居酒屋、牛料理、揚げ物,3.53,45,https://tabelog.com/ishikawa/A1702/A170203/17011967/,石川県/野々市市/下林/3-287-1,36.52375477717265,136.600410415114,火・水・木・金・土/11:30 - 14:00/L.O. 13:30/17:30 - 23:00/L.O. 22:30/月・日/定休日,予約可,-,"￥1,000～￥1,999",2019年6月6日
17008766,KAORU,ケーキ、ジェラート・アイスクリーム,3.15,21,https://tabelog.com/ishikawa/A1702/A170203/17008766/,石川県/野々市市/下林/4-493,36.52355479717361,136.60303997511014,月・水・木・金・土・日/10:00 - 20:00/火/定休日,,-,-,
17010969,ソルフラ,カフェ,3.06,8,https://tabelog.com/ishikawa/A1702/A170203/17010969/,石川県/野々市市/下林/4-264,36.5229513371749,136.60589194510206,月・火・木・金・土・日/09:30 - 17:00/水/定休日 ■ 定休日/第２、第４木曜,予約可,-,～￥999,2017年12月
17015442,月日,カフェ,3.02,1,https://tabelog.com/ishikawa/A1702/A170203/17015442/,石川県/野々市市/下林/4-117-1,36.52110653717511,136.60284309508552,木・金・土/11:00 - 15:00/月・火・水・日/定休日,,-,-,
17004022,雪花菜,海鮮、揚げ物、ふぐ,3.68, - ,https://tabelog.com/ishikawa/A1702/A170203/17004022/,石川県/野々市市/下林/3-293-2,36.52380863636737,136.60081989395246,月・火・木・金・土・日/17:00 - 22:00/水/定休日,予約可,-,-,2000年6月20日
17013055,ジョニーのビリヤニ,インド料理、インドカレー、パキスタン料理,3.61,217,https://tabelog.com/ishikawa/A1702/A170203/17013055/,石川県/野々市市/白山町/4-1/イオンタウン野々市,36.527384136369236,136.61383179397947,月・火・水・木/11:00 - 15:00/金・土/11:00 - 19:00/日・祝日・祝前日/11:00 - 19:00/L.O. 14:00/祝後日/11:00 - 15:00/L.O. 14:00,予約可,"￥1,000～￥1,999","￥1,000～￥1,999",2021年9月1日
17011468,とんかつ専門店 かつ坊,とんかつ,3.56,79,https://tabelog.com/ishikawa/A1702/A170203/17011468/,石川県/野々市市/高橋町/14-43/グリーンハイツⅡ 1F,36.53215128717517,136.6250970451815,水・木・金・土・日/11:30 - 14:30/17:30 - 20:30/月・火/定休日,予約可,"￥2,000～￥2,999","￥1,000～￥1,999",2018年11月1日
17001994,但馬や,焼肉,3.53,21,https://tabelog.com/ishikawa/A1702/A170203/17001994/,石川県/野々市市/粟田/4-150,36.5172458471805,136.61211015504003,月・火・水・金・土・日/17:00 - 22:30/L.O. 22:00/木/定休日,予約可,"￥4,000～￥4,999",-,
17006708,自家製麺 TERRA,ラーメン,3.51,205,https://tabelog.com/ishikawa/A1702/A170203/17006708/,石川県/野々市市/扇ヶ丘9-20/扇ヶ丘ビル1Ｆ横,36.527197936374286,136.62932679396675,火・水・土/11:00 - 14:00/L.O. 料理13:45/17:30 - 20:00/L.O. 料理19:45/日/11:00 - 14:00/L.O. 料理13:45/月・木・金/定休日,予約不可,"￥1,000～￥1,999","￥1,000～￥1,999",2010年6月5日
17013650,マルガーラボ 野々市店,ジェラート・アイスクリーム、洋菓子,3.46,137,https://tabelog.com/ishikawa/A1702/A170203/17013650/,石川県/野々市市/本町/6-370,36.535032007168546,136.61004424522116,月・火・木・金・土・日/11:00 - 17:00/水/定休日,予約不可,～￥999,-,
17013361,中華そば ブラボー,ラーメン,3.44,81,https://tabelog.com/ishikawa/A1702/A170203/17013361/,石川県/野々市市/稲荷/4-85,36.53681441716512,136.60283111524424,月・火・水・木・金・土/11:00 - 15:00/L.O. 14:30/18:00 - 21:30/L.O. 21:00/日/定休日 ■ 定休日/第1・3月曜日,予約不可,"￥1,000～￥1,999","￥1,000～￥1,999",2022年4月5日
17009973,NiOR,パン,3.43,85,https://tabelog.com/ishikawa/A1702/A170203/17009973/,石川県/野々市市/白山町/392,36.52795829717358,136.6117569051485,月・火・金/10:00 - 19:00/土・日・祝日/09:00 - 19:00/水・木/定休日 ■ 営業時間/※売り切れ次第終了/■ 定休日/不定休,予約不可,-,-,2016年2月
17013675,ramen 雨燕,ラーメン,0.0,67,https://tabelog.com/ishikawa/A1702/A170203/17013675/,石川県/野々市市/高橋町/5-28,36.53235468717481,136.62436722518407,月・火・水・金・土・日/11:00 - 14:30/18:00 - 22:00/木/定休日 ■ 定休日/木曜日、第2・3火曜日,予約不可,"￥1,000～￥1,999","￥1,000～￥1,999",2022年11月1日
17001509,お多福 新庄店,うどん、食堂,3.17,19,https://tabelog.com/ishikawa/A1702/A170203/17001509/,石川県/野々市市/新庄/1-272-2,36.50175216719008,136.61127615488414,火・水・木・金・土・日/11:00 - 22:00/L.O. 料理21:30/月/定休日,予約不可,-,"￥1,000～￥1,999",
17001438,パウンドハウス 野々市店,ケーキ,3.12,23,https://tabelog.com/ishikawa/A1702/A170203/17001438/,石川県/野々市市/新庄/6-508,36.50615863638108,136.6086828937687,11:00 - 19:00 ■ 定休日/不定休,予約可,～￥999,-,
17011603,天下一品 野々市新庄店,ラーメン,3.04,49,https://tabelog.com/ishikawa/A1702/A170203/17011603/,石川県/野々市市/新庄/6-717,36.502298047188646,136.607867764892,月・火・水・木・金・土・日・祝日・祝前日・祝後日/11:00 - 23:30/L.O. 23:00 ■ 営業時間/※駐車スペース22台分有/■ 定休日/・定休日無し・店休を設ける際は、店内もしくは天下一品HPにて、お知らせ致します。/年末年始営業時間/2025年12月31日 11時～15時30分（LO：15時）/2026年1月1日 11時～21時（LO：20時30分）/■ 石川県では野々市新庄店のみとなりますので宜しくお願い申し上げます。,予約不可,"￥1,000～￥1,999","￥1,000～￥1,999",2019年3月13日
17014776,ライキッチン,インド料理,3.04,2,https://tabelog.com/ishikawa/A1702/A170203/17014776/,石川県/野々市市/新庄/5-235-1/1F,36.508810157185906,136.61224388495472,月・水・木・金・土・日/11:00 - 15:00/17:00 - 22:00/火/定休日,,-,-,2023年6月1日
17007674,餃子の王将 野々市新庄店,中華料理、餃子,3.03,20,https://tabelog.com/ishikawa/A1702/A170203/17007674/,石川県/野々市市/新庄/1-279,36.50227613638454,136.61182889372728,11:00 - 22:30/L.O. 22:00,予約可,～￥999,～￥999,2012年5月18日
17009264,かつや 金沢南店,かつ丼、とんかつ,3.03,14,https://tabelog.com/ishikawa/A1702/A170203/17009264/,石川県/野々市市/新庄/6-705,36.50247597718823,136.6069171148945,10:30 - 01:00/L.O. 00:30,予約可,-,～￥999,2014年10月24日
17005522,モスバーガー 野々市新庄店,ハンバーガー,3.03,13,https://tabelog.com/ishikawa/A1702/A170203/17005522/,石川県/野々市市/新庄/2-68-1,36.50149207437779,136.6071044897691,月・火・水・木・金・土・日・祝日/07:00 - 23:00,,-,～￥999,
17003230,どかおじ,居酒屋,3.03,4,https://tabelog.com/ishikawa/A1702/A170203/17003230/,石川県/野々市市/新庄/1-281,36.502201437190045,136.61206469488812,,,-,-,
17012977,フルーツむらはた 野々市店,フルーツパーラー,3.03,2,https://tabelog.com/ishikawa/A1702/A170203/17012977/,石川県/野々市市/新庄/2-62,36.49705718719245,136.60937383483804,11:00 - 15:00,予約可,-,～￥999,
17001997,南大門,焼肉,3.02,3,https://tabelog.com/ishikawa/A1702/A170203/17001997/,石川県/野々市市/新庄/1-280-2,36.502237797189984,136.61196763488852,,,-,-,
17014895,焼肉てん.,焼肉、ホルモン,3.02,1,https://tabelog.com/ishikawa/A1702/A170203/17014895/,石川県/野々市市/新庄/5-25,36.50624203718736,136.61171269492917,月・水・木・金・土・日/17:00 - 23:00/L.O. 22:00/火/定休日 貸し切りご希望の際には必ずお電話にてご相談ください。/不定休になる場合もございますのでご了承ください。,予約可,"￥4,000～￥4,999",-,2024年11月1日
17007176,シャトレーゼ 野々市新庄店,ケーキ、和菓子,3.01,7,https://tabelog.com/ishikawa/A1702/A170203/17007176/,石川県/野々市市/新庄/5-1,36.505867177187554,136.6115607549255,09:00 - 21:00,予約可,-,-,
17010201,すき家 野々市新庄店,牛丼、カレー、食堂,3.01,6,https://tabelog.com/ishikawa/A1701/A170101/17010201/,石川県/野々市市/新庄/3-253,36.5028311371893,136.61099869489522,■ 営業時間/http://maps.sukiya.jp/p/zen004/dtl/ID0100809/?&cond1=1&cond2=1&&his=sw,,-,-,
17006312,マクドナルド 野々市新庄店,ハンバーガー,3.0,14,https://tabelog.com/ishikawa/A1702/A170203/17006312/,石川県/野々市市/新庄/3-6,36.50277467718963,136.611908024894,24時間営業,予約不可,-,～￥999,
17011439,菜じゅーくらたや,その他,0.0,4,https://tabelog.com/ishikawa/A1702/A170203/17011439/,石川県/野々市市/新庄/5-9/KANADE Ⅷ,36.50603730523691,136.6101658316988,火・水・木・金・土・日/10:00 - 17:00/月/定休日 ■ 定休日/第3日曜日・第5日曜日,,-,-,
17015649,pension たいむりー,イタリアン、カフェ、バル,0.0, - ,https://tabelog.com/ishikawa/A1702/A170203/17015649/,石川県/野々市市/新庄/5-52,36.506735337187116,136.61190479493402,火・水・木・金・土・日/11:00 - 15:30/15:30 - 17:00/18:00 - 22:00/月/定休日,,-,-,2025年12月20日
17012639,チャオ,喫茶店,0.0, - ,https://tabelog.com/ishikawa/A1702/A170203/17012639/,石川県/野々市市/新庄/5-46,36.50642517440525,136.61177219564547,火・水・木・金・土・日/11:00 - 21:00/月/定休日,,-,-,
17014568,Tree+ing Cafe フクロウの森,カフェ、喫茶店,3.04,3,https://tabelog.com/ishikawa/A1702/A170203/17014568/,石川県/野々市市/末松/1-56,36.50832836717999,136.59272573496358,月・火・金・土・日/11:00 - 18:00/水・木/定休日,予約可,～￥999,～￥999,
17000700,すし処 めくみ,寿司,4.52,505,https://tabelog.com/ishikawa/A1702/A170203/17000700/,石川県/野々市市/下林/4-48,36.52157049717454,136.60199876509083,火・水・木・金・土/18:00 - 20:00/20:30 - 22:30/日/12:00 - 14:00/18:00 - 20:00/20:30 - 22:30/月/定休日 ■ 営業時間/[火～土]/18:00～20:30(最終入店)/[日]/12:00(最終入店) /18:00～20:30(最終入店)/■ 定休日/月曜・火曜不定休,完全予約制,"￥40,000～￥49,999","￥40,000～￥49,999",
17013055,ジョニーのビリヤニ,インド料理、インドカレー、パキスタン料理,3.68,217,https://tabelog.com/ishikawa/A1702/A170203/17013055/,石川県/野々市市/白山町/4-1/イオンタウン野々市,36.527384136369236,136.61383179397947,月・火・水・木/11:00 - 15:00/金・土/11:00 - 19:00/日・祝日・祝前日/11:00 - 19:00/L.O. 14:00/祝後日/11:00 - 15:00/L.O. 14:00,予約可,"￥1,000～￥1,999","￥1,000～￥1,999",2021年9月1日
17011468,とんかつ専門店 かつ坊,とんかつ,3.61,79,https://tabelog.com/ishikawa/A1702/A170203/17011468/,石川県/野々市市/高橋町/14-43/グリーンハイツⅡ 1F,36.53215128717517,136.6250970451815,水・木・金・土・日/11:30 - 14:30/17:30 - 20:30/月・火/定休日,予約可,"￥2,000～￥2,999","￥1,000～￥1,999",2018年11月1日
17001994,但馬や,焼肉,3.56,21,https://tabelog.com/ishikawa/A1702/A170203/17001994/,石川県/野々市市/粟田/4-150,36.5172458471805,136.61211015504003,月・火・水・金・土・日/17:00 - 22:30/L.O. 22:00/木/定休日,予約可,"￥4,000～￥4,999",-,
17006708,自家製麺 TERRA,ラーメン,3.53,205,https://tabelog.com/ishikawa/A1702/A170203/17006708/,石川県/野々市市/扇ヶ丘9-20/扇ヶ丘ビル1Ｆ横,36.527197936374286,136.62932679396675,火・水・土/11:00 - 14:00/L.O. 料理13:45/17:30 - 20:00/L.O. 料理19:45/日/11:00 - 14:00/L.O. 料理13:45/月・木・金/定休日,予約不可,"￥1,000～￥1,999","￥1,000～￥1,999",2010年6月5日
17011967,ななや,居酒屋、牛料理、揚げ物,3.53,45,https://tabelog.com/ishikawa/A1702/A170203/17011967/,石川県/野々市市/下林/3-287-1,36.52375477717265,136.600410415114,火・水・木・金・土/11:30 - 14:00/L.O. 13:30/17:30 - 23:00/L.O. 22:30/月・日/定休日,予約可,-,"￥1,000～￥1,999",2019年6月6日
17013650,マルガーラボ 野々市店,ジェラート・アイスクリーム、洋菓子,3.51,137,https://tabelog.com/ishikawa/A1702/A170203/17013650/,石川県/野々市市/本町/6-370,36.535032007168546,136.61004424522116,月・火・木・金・土・日/11:00 - 17:00/水/定休日,予約不可,～￥999,-,
17013361,中華そば ブラボー,ラーメン,3.46,81,https://tabelog.com/ishikawa/A1702/A170203/17013361/,石川県/野々市市/稲荷/4-85,36.53681441716512,136.60283111524424,月・火・水・木・金・土/11:00 - 15:00/L.O. 14:30/18:00 - 21:30/L.O. 21:00/日/定休日 ■ 定休日/第1・3月曜日,予約不可,"￥1,000～￥1,999","￥1,000～￥1,999",2022年4月5日
17009973,NiOR,パン,3.44,85,https://tabelog.com/ishikawa/A1702/A170203/17009973/,石川県/野々市市/白山町/392,36.52795829717358,136.6117569051485,月・火・金/10:00 - 19:00/土・日・祝日/09:00 - 19:00/水・木/定休日 ■ 営業時間/※売り切れ次第終了/■ 定休日/不定休,予約不可,-,-,2016年2月
17013675,ramen 雨燕,ラーメン,3.43,67,https://tabelog.com/ishikawa/A1702/A170203/17013675/,石川県/野々市市/高橋町/5-28,36.53235468717481,136.62436722518407,月・火・水・金・土・日/11:00 - 14:30/18:00 - 22:00/木/定休日 ■ 定休日/木曜日、第2・3火曜日,予約不可,"￥1,000～￥1,999","￥1,000～￥1,999",2022年11月1日
17013344,青星,サンドイッチ,3.06,4,https://tabelog.com/ishikawa/A1702/A170203/17013344/,石川県/野々市市/菅原町/3-12,36.52960303636847,136.61583859400048,,予約可,-,～￥999,
17001710,ぽん太,焼き鳥,3.03,4,https://tabelog.com/ishikawa/A1702/A170203/17001710/,石川県/野々市市/菅原町/8-36,36.52878854717449,136.6162618351537,■ 営業時間/17:30～/■ 定休日/日曜日,,"￥2,000～￥2,999",-,
17000700,すし処 めくみ,寿司,4.52,505,https://tabelog.com/ishikawa/A1702/A170203/17000700/,石川県/野々市市/下林/4-48,36.52157049717454,136.60199876509083,火・水・木・金・土/18:00 - 20:00/20:30 - 22:30/日/12:00 - 14:00/18:00 - 20:00/20:30 - 22:30/月/定休日 ■ 営業時間/[火～土]/18:00～20:30(最終入店)/[日]/12:00(最終入店) /18:00～20:30(最終入店)/■ 定休日/月曜・火曜不定休,完全予約制,"￥40,000～￥49,999","￥40,000～￥49,999",
17013055,ジョニーのビリヤニ,インド料理、インドカレー、パキスタン料理,3.68,217,https://tabelog.com/ishikawa/A1702/A170203/17013055/,石川県/野々市市/白山町/4-1/イオンタウン野々市,36.527384136369236,136.61383179397947,月・火・水・木/11:00 - 15:00/金・土/11:00 - 19:00/日・祝日・祝前日/11:00 - 19:00/L.O. 14:00/祝後日/11:00 - 15:00/L.O. 14:00,予約可,"￥1,000～￥1,999","￥1,000～￥1,999",2021年9月1日
17011468,とんかつ専門店 かつ坊,とんかつ,3.61,79,https://tabelog.com/ishikawa/A1702/A170203/17011468/,石川県/野々市市/高橋町/14-43/グリーンハイツⅡ 1F,36.53215128717517,136.6250970451815,水・木・金・土・日/11:30 - 14:30/17:30 - 20:30/月・火/定休日,予約可,"￥2,000～￥2,999","￥1,000～￥1,999",2018年11月1日
17001994,但馬や,焼肉,3.56,21,https://tabelog.com/ishikawa/A1702/A170203/17001994/,石川県/野々市市/粟田/4-150,36.5172458471805,136.61211015504003,月・火・水・金・土・日/17:00 - 22:30/L.O. 22:00/木/定休日,予約可,"￥4,000～￥4,999",-,
17006708,自家製麺 TERRA,ラーメン,3.53,205,https://tabelog.com/ishikawa/A1702/A170203/17006708/,石川県/野々市市/扇ヶ丘9-20/扇ヶ丘ビル1Ｆ横,36.527197936374286,136.62932679396675,火・水・土/11:00 - 14:00/L.O. 料理13:45/17:30 - 20:00/L.O. 料理19:45/日/11:00 - 14:00/L.O. 料理13:45/月・木・金/定休日,予約不可,"￥1,000～￥1,999","￥1,000～￥1,999",2010年6月5日
17011967,ななや,居酒屋、牛料理、揚げ物,3.53,45,https://tabelog.com/ishikawa/A1702/A170203/17011967/,石川県/野々市市/下林/3-287-1,36.52375477717265,136.600410415114,火・水・木・金・土/11:30 - 14:00/L.O. 13:30/17:30 - 23:00/L.O. 22:30/月・日/定休日,予約可,-,"￥1,000～￥1,999",2019年6月6日
17013650,マルガーラボ 野々市店,ジェラート・アイスクリーム、洋菓子,3.51,137,https://tabelog.com/ishikawa/A1702/A170203/17013650/,石川県/野々市市/本町/6-370,36.535032007168546,136.61004424522116,月・火・木・金・土・日/11:00 - 17:00/水/定休日,予約不可,～￥999,-,
17013361,中華そば ブラボー,ラーメン,3.46,81,https://tabelog.com/ishikawa/A1702/A170203/17013361/,石川県/野々市市/稲荷/4-85,36.53681441716512,136.60283111524424,月・火・水・木・金・土/11:00 - 15:00/L.O. 14:30/18:00 - 21:30/L.O. 21:00/日/定休日 ■ 定休日/第1・3月曜日,予約不可,"￥1,000～￥1,999","￥1,000～￥1,999",2022年4月5日
17009973,NiOR,パン,3.44,85,https://tabelog.com/ishikawa/A1702/A170203/17009973/,石川県/野々市市/白山町/392,36.52795829717358,136.6117569051485,月・火・金/10:00 - 19:00/土・日・祝日/09:00 - 19:00/水・木/定休日 ■ 営業時間/※売り切れ次第終了/■ 定休日/不定休,予約不可,-,-,2016年2月
17013675,ramen 雨燕,ラーメン,3.43,67,https://tabelog.com/ishikawa/A1702/A170203/17013675/,石川県/野々市市/高橋町/5-28,36.53235468717481,136.62436722518407,月・火・水・金・土・日/11:00 - 14:30/18:00 - 22:00/木/定休日 ■ 定休日/木曜日、第2・3火曜日,予約不可,"￥1,000～￥1,999","￥1,000～￥1,999",2022年11月1日
17014361,Bメロ,カレー,3.12,17,https://tabelog.com/ishikawa/A1702/A170203/17014361/,石川県/野々市市/住吉町/14-56,36.526815687176736,136.61935767513162,火・水・木・金・土・日/11:00 - 15:00/17:30 - 20:30/月/定休日 ラストオーダーは各30分前,予約可,"￥1,000～￥1,999","￥1,000～￥1,999",2024年1月16日
17001996,焼肉びーとん,焼肉、居酒屋、韓国料理,3.05,6,https://tabelog.com/ishikawa/A1702/A170203/17001996/,石川県/野々市市/住吉町/14-60,36.52678996717663,136.6190008051316,火・水・木・金・土・日/17:00 - 23:00/月/定休日 ■ 定休日/月曜が祝日の場合は営業で火曜休,予約可,"￥3,000～￥3,999",-,
17000700,すし処 めくみ,寿司,4.52,505,https://tabelog.com/ishikawa/A1702/A170203/17000700/,石川県/野々市市/下林/4-48,36.52157049717454,136.60199876509083,火・水・木・金・土/18:00 - 20:00/20:30 - 22:30/日/12:00 - 14:00/18:00 - 20:00/20:30 - 22:30/月/定休日 ■ 営業時間/[火～土]/18:00～20:30(最終入店)/[日]/12:00(最終入店) /18:00～20:30(最終入店)/■ 定休日/月曜・火曜不定休,完全予約制,"￥40,000～￥49,999","￥40,000～￥49,999",
17013055,ジョニーのビリヤニ,インド料理、インドカレー、パキスタン料理,3.68,217,https://tabelog.com/ishikawa/A1702/A170203/17013055/,石川県/野々市市/白山町/4-1/イオンタウン野々市,36.527384136369236,136.61383179397947,月・火・水・木/11:00 - 15:00/金・土/11:00 - 19:00/日・祝日・祝前日/11:00 - 19:00/L.O. 14:00/祝後日/11:00 - 15:00/L.O. 14:00,予約可,"￥1,000～￥1,999","￥1,000～￥1,999",2021年9月1日
17011468,とんかつ専門店 かつ坊,とんかつ,3.61,79,https://tabelog.com/ishikawa/A1702/A170203/17011468/,石川県/野々市市/高橋町/14-43/グリーンハイツⅡ 1F,36.53215128717517,136.6250970451815,水・木・金・土・日/11:30 - 14:30/17:30 - 20:30/月・火/定休日,予約可,"￥2,000～￥2,999","￥1,000～￥1,999",2018年11月1日
17001994,但馬や,焼肉,3.56,21,https://tabelog.com/ishikawa/A1702/A170203/17001994/,石川県/野々市市/粟田/4-150,36.5172458471805,136.61211015504003,月・火・水・金・土・日/17:00 - 22:30/L.O. 22:00/木/定休日,予約可,"￥4,000～￥4,999",-,
17006708,自家製麺 TERRA,ラーメン,3.53,205,https://tabelog.com/ishikawa/A1702/A170203/17006708/,石川県/野々市市/扇ヶ丘9-20/扇ヶ丘ビル1Ｆ横,36.527197936374286,136.62932679396675,火・水・土/11:00 - 14:00/L.O. 料理13:45/17:30 - 20:00/L.O. 料理19:45/日/11:00 - 14:00/L.O. 料理13:45/月・木・金/定休日,予約不可,"￥1,000～￥1,999","￥1,000～￥1,999",2010年6月5日
17011967,ななや,居酒屋、牛料理、揚げ物,3.53,45,https://tabelog.com/ishikawa/A1702/A170203/17011967/,石川県/野々市市/下林/3-287-1,36.52375477717265,136.600410415114,火・水・木・金・土/11:30 - 14:00/L.O. 13:30/17:30 - 23:00/L.O. 22:30/月・日/定休日,予約可,-,"￥1,000～￥1,999",2019年6月6日
17013650,マルガーラボ 野々市店,ジェラート・アイスクリーム、洋菓子,3.51,137,https://tabelog.com/ishikawa/A1702/A170203/17013650/,石川県/野々市市/本町/6-370,36.535032007168546,136.61004424522116,月・火・木・金・土・日/11:00 - 17:00/水/定休日,予約不可,～￥999,-,
17013361,中華そば ブラボー,ラーメン,3.46,81,https://tabelog.com/ishikawa/A1702/A170203/17013361/,石川県/野々市市/稲荷/4-85,36.53681441716512,136.60283111524424,月・火・水・木・金・土/11:00 - 15:00/L.O. 14:30/18:00 - 21:30/L.O. 21:00/日/定休日 ■ 定休日/第1・3月曜日,予約不可,"￥1,000～￥1,999","￥1,000～￥1,999",2022年4月5日
17009973,NiOR,パン,3.44,85,https://tabelog.com/ishikawa/A1702/A170203/17009973/,石川県/野々市市/白山町/392,36.52795829717358,136.6117569051485,月・火・金/10:00 - 19:00/土・日・祝日/09:00 - 19:00/水・木/定休日 ■ 営業時間/※売り切れ次第終了/■ 定休日/不定休,予約不可,-,-,2016年2月
17013675,ramen 雨燕,ラーメン,3.43,67,https://tabelog.com/ishikawa/A1702/A170203/17013675/,石川県/野々市市/高橋町/5-28,36.53235468717481,136.62436722518407,月・火・水・金・土・日/11:00 - 14:30/18:00 - 22:00/木/定休日 ■ 定休日/木曜日、第2・3火曜日,予約不可,"￥1,000～￥1,999","￥1,000～￥1,999",2022年11月1日
17011468,とんかつ専門店 かつ坊,とんかつ,3.61,79,https://tabelog.com/ishikawa/A1702/A170203/17011468/,石川県/野々市市/高橋町/14-43/グリーンハイツⅡ 1F,36.53215128717517,136.6250970451815,水・木・金・土・日/11:30 - 14:30/17:30 - 20:30/月・火/定休日,予約可,"￥2,000～￥2,999","￥1,000～￥1,999",2018年11月1日
17013675,ramen 雨燕,ラーメン,3.43,67,https://tabelog.com/ishikawa/A1702/A170203/17013675/,石川県/野々市市/高橋町/5-28,36.53235468717481,136.62436722518407,月・火・水・金・土・日/11:00 - 14:30/18:00 - 22:00/木/定休日 ■ 定休日/木曜日、第2・3火曜日,予約不可,"￥1,000～￥1,999","￥1,000～￥1,999",2022年11月1日
17000506,鬍鬚張魯肉飯 金沢工大前店,台湾料理、飲茶・点心、担々麺,3.38,86,https://tabelog.com/ishikawa/A1702/A170203/17000506/,石川県/野々市市/高橋町/20-5,36.53001995717664,136.6254747751597,月・火・木・金/11:00 - 15:00/17:00 - 21:00/L.O. 20:30/土・日・祝日/11:00 - 21:00/L.O. 20:30/水/定休日,予約可,～￥999,～￥999,2004年9月
17000129,カレーのチャンピオン 野々市本店,カレー、郷土料理、食堂,3.25,258,https://tabelog.com/ishikawa/A1702/A170203/17000129/,石川県/野々市市/高橋町/20-17,36.53013608717636,136.62482111516135,11:00 - 23:00/L.O. 22:45,予約不可,～￥999,～￥999,1961年
17003185,きっちんサイクル,食堂,3.23,39,https://tabelog.com/ishikawa/A1702/A170203/17003185/,石川県/野々市市/高橋町/24-3,36.53000143717815,136.63015673515622,月・火・水・木・金・土/11:00 - 14:00/17:30 - 22:00/日・祝日/定休日,予約可,-,～￥999,
17001508,ラーメン一鶴,ラーメン,3.22,71,https://tabelog.com/ishikawa/A1702/A170203/17001508/,石川県/野々市市/高橋町/14-43,36.53202680717513,136.62472098518052,月・火・木・金・土・日/11:30 - 14:00/17:30 - 22:00/水/定休日,予約不可,～￥999,～￥999,
17007005,かものニュージョイス,弁当、サンドイッチ,3.19,21,https://tabelog.com/ishikawa/A1702/A170203/17007005/,石川県/野々市市/高橋町/10-22,36.533391157175345,136.62811676519192,月・火・水・木・金・土/07:00 - 18:00/日・祝日/定休日,予約可,-,～￥999,
17012716,カルメギ本店,韓国料理,3.19,8,https://tabelog.com/ishikawa/A1702/A170203/17012716/,石川県/野々市市/高橋町/14-43,36.53216203636971,136.62484269402,18:00 - 03:00/L.O. 02:30,,"￥3,000～￥3,999",-,
17010814,カフェ ワイズホーム,カフェ,3.18,24,https://tabelog.com/ishikawa/A1702/A170203/17010814/,石川県/野々市市/高橋町/8-1,36.53332681717486,136.62643955519243,月・火・水/09:00 - 19:00/土・日・祝日/08:00 - 18:00/木・金/定休日,予約不可,～￥999,～￥999,
17011598,韓国居酒屋Pocha,居酒屋、韓国料理、バル,3.18,16,https://tabelog.com/ishikawa/A1702/A170203/17011598/,石川県/野々市市/高橋町/5-28,36.53235423636944,136.6243542940223,月・火・木・金・土・日/18:00 - 23:00/L.O. 料理22:00 ドリンク22:30/水/定休日 ■ 定休日/※水曜日が祝祭日の場合は営業することがあります。お電話でご確認ください。,予約可,"￥4,000～￥4,999",-,2018年10月20日
17003464,かあさんの家,食堂,3.07,12,https://tabelog.com/ishikawa/A1702/A170203/17003464/,石川県/野々市市/高橋町/5-28,36.53231792717477,136.62417319518383,,,～￥999,-,
17003067,豚菜や とんくん,居酒屋、豚料理、食堂,3.05,11,https://tabelog.com/ishikawa/A1702/A170203/17003067/,石川県/野々市市/高橋町/6-28,36.53236794717491,136.62469910518396,月・火・水・木・金・土/18:00 - 02:00/L.O. 01:30/日/定休日 ■ 定休日/第３月曜日,予約可,"￥2,000～￥2,999",-,
17001188,炭焼市場 たい笑,居酒屋、焼き鳥,3.05,7,https://tabelog.com/ishikawa/A1702/A170203/17001188/,石川県/野々市市/高橋町/5-28,36.53235908717487,136.62456083518398,月・火・水・木・金・土/18:00 - 02:00/L.O. 01:00/日/定休日,予約可,"￥2,000～￥2,999",-,
17013184,Blue Diamond,インド料理,3.05,7,https://tabelog.com/ishikawa/A1702/A170203/17013184/,石川県/野々市市/高橋町/6-30,36.532323836369606,136.62483489402166,月・火・水・木・金/11:00 - 15:00/L.O. 14:30/17:00 - 22:00/L.O. 21:30/土・日・祝日/11:00 - 22:00/L.O. 21:30,,-,-,
17002489,ぱちぱち,鳥料理、居酒屋、鍋,3.04,8,https://tabelog.com/ishikawa/A1702/A170203/17002489/,石川県/野々市市/高橋町/20-5/1F,36.5300075363712,136.625253293998,月・火・水・金・土・日/18:00 - 01:00/L.O. 00:30/木/定休日,予約可,"￥2,000～￥2,999",-,2008年10月27日
17015033,cafe toi toi,カフェ,3.04,2,https://tabelog.com/ishikawa/A1702/A170203/17015033/,石川県/野々市市/高橋町/6-8,36.53346023717443,136.62537369519453,火・水・木・金・土・日/11:00 - 18:00/月/定休日,,-,-,2025年1月7日
17009886,大衆酒場 Sembello,居酒屋,3.03,3,https://tabelog.com/ishikawa/A1702/A170203/17009886/,石川県/野々市市/高橋町/14-43/グリーンハイツ2,36.532155387175116,136.62493341518166,月・火・水・木・金・土/17:00 - 01:00/日・祝日/定休日 ■ 定休日/日曜日・祝日（連休の場合は最終日のみ休み）,,～￥999,-,2015年12月1日
17011721,ガリバーカフェ,カフェ、洋菓子,3.01,3,https://tabelog.com/ishikawa/A1702/A170203/17011721/,石川県/野々市市/高橋町/15-8,36.53214280717493,136.62431906518196,10:30 - 00:00,,-,-,
17010735,我流居酒屋 空前,居酒屋,3.01,2,https://tabelog.com/ishikawa/A1702/A170203/17010735/,石川県/野々市市/高橋町/5-28/アジュール高橋町,36.532377637174775,136.6243001951843,月・火・水・木・金・土/18:00 - 01:00/L.O. 00:30/日・祝日/18:00 - 22:30/L.O. 22:30,,-,-,
17004155,アーバン・プラネット,喫茶店,3.01,1,https://tabelog.com/ishikawa/A1702/A170203/17004155/,石川県/野々市市/高橋町/5-28,36.53240872697958,136.62427888285845,,,-,-,
17012709,茶色は正義 金沢工大前店,からあげ、丼、弁当,0.0,1,https://tabelog.com/ishikawa/A1702/A170203/17012709/,石川県/野々市市/高橋町/14-43/グリーンハイツ2,36.532172436369734,136.62492409402006,月・火・水・木・金・土/18:00 - 23:30/L.O. 料理23:00/日・祝日/定休日 ■ 営業時間/ランチ営業あり 営業時間未確認,予約可,"￥1,000～￥1,999",-,2021年4月1日
17015119,tea room ヴィラコスモス,喫茶店,0.0, - ,https://tabelog.com/ishikawa/A1702/A170203/17015119/,石川県/野々市市/高橋町/6-20,36.533046537174556,136.62493959519065,月・火・木・金・土/08:00 - 17:00/水/08:00 - 12:00/日・祝日/定休日,,-,-,
17012302,クレープ&デザート ブーブーブー,クレープ・ガレット、ソフトクリーム、カフェ,3.15,17,https://tabelog.com/ishikawa/A1702/A170203/17012302/,石川県/野々市市/太平寺/1-261,36.52863759717186,136.6076950851582,月・火・木/11:00 - 18:00/金・土・日/11:00 - 20:00/水/定休日,,"￥1,000～￥1,999",～￥999,2020年7月3日
17013216,東大門タッカンマリ通り,韓国料理、水炊き,3.05,4,https://tabelog.com/ishikawa/A1702/A170203/17013216/,石川県/野々市市/太平寺/3-42/ヴィラージュ 1F,36.53066093636455,136.60562729401832,月・火・木・金・土・日/17:00 - 00:00/L.O. 23:30/水/定休日,予約可,"￥4,000～￥4,999",-,2021年12月17日
17009589,おはし,創作料理、居酒屋、バル,3.04,7,https://tabelog.com/ishikawa/A1702/A170203/17009589/,石川県/野々市市/太平寺/3-42/ヴィラージュ 1F,36.53074894716989,136.60570358518092,月・火・水・金・土・祝日・祝前日・祝後日/18:00 - 22:30/L.O. 22:00/日/18:00 - 22:00/L.O. 21:30/木/定休日 ホームページのカレンダーで確認できます 1月、2月、8月は定休日が変則的です/◆キャンセル規定/本予約確定後にキャンセルをされた場合、下記の料金を頂戴いたしております。あらかじめご確認の上ご予約お願いします。/仮予約はご希望日の2週間ほど前よりお受けしております。/※店舗へのお問い合わせや人数変更のご希望についてはお電話にて/お願い致します。/※クリスマス限定フルコース（12/24・25）のみ随時ご予約受付しています,予約可,"￥3,000～￥3,999",-,2015年5月9日
17015313,Cafe DOT ののいち,カフェ,3.02,1,https://tabelog.com/ishikawa/A1702/A170203/17015313/,石川県/野々市市/太平寺/4-156/ののいちカレード内,36.529212537171766,136.60854707516341,月・火・木・金・土・日/09:00 - 18:00/水/定休日,,-,-,2025年7月12日
17014943,トンデムンボウルズ,弁当,3.0,2,https://tabelog.com/ishikawa/A1702/A170203/17014943/,石川県/野々市市/太平寺/3-42/ヴィラージュ 1F D棟,36.53066098716992,136.60562800518008,11:00 - 17:00,予約不可,-,-,2024年12月1日
17007892,能登揚物酒家 一,居酒屋、海鮮、郷土料理,3.0,1,https://tabelog.com/ishikawa/A1702/A170203/17007892/,石川県/野々市市/太平寺/3-42/ヴィラージュ 1F,36.53058739637494,136.60567739503347,11:00 - 14:00/17:30 - 23:00 ■ 定休日/不定休,予約可,-,-,2011年12月
17000928,美優魚,寿司,4.52, - ,https://tabelog.com/ishikawa/A1702/A170203/17000928/,石川県/野々市市/太平寺/3-42/ヴィラージュ北誠　１Ｆ,36.53072718713177,136.60546687817066,17:00 - 23:00,,-,-,
17005904,あ・うん,喫茶店,3.68, - ,https://tabelog.com/ishikawa/A1702/A170203/17005904/,石川県/野々市市/太平寺/3-179,36.53219804716918,136.60638201519507,,,-,-,
17003596,まる金,居酒屋、日本料理、揚げ物,3.61, - ,https://tabelog.com/ishikawa/A1702/A170203/17003596/,石川県/野々市市/太平寺/2-65,36.52718281717153,136.6037445951463,,,-,-,
17000700,すし処 めくみ,寿司,3.56,505,https://tabelog.com/ishikawa/A1702/A170203/17000700/,石川県/野々市市/下林/4-48,36.52157049717454,136.60199876509083,火・水・木・金・土/18:00 - 20:00/20:30 - 22:30/日/12:00 - 14:00/18:00 - 20:00/20:30 - 22:30/月/定休日 ■ 営業時間/[火～土]/18:00～20:30(最終入店)/[日]/12:00(最終入店) /18:00～20:30(最終入店)/■ 定休日/月曜・火曜不定休,完全予約制,"￥40,000～￥49,999","￥40,000～￥49,999",
17013055,ジョニーのビリヤニ,インド料理、インドカレー、パキスタン料理,3.53,217,https://tabelog.com/ishikawa/A1702/A170203/17013055/,石川県/野々市市/白山町/4-1/イオンタウン野々市,36.527384136369236,136.61383179397947,月・火・水・木/11:00 - 15:00/金・土/11:00 - 19:00/日・祝日・祝前日/11:00 - 19:00/L.O. 14:00/祝後日/11:00 - 15:00/L.O. 14:00,予約可,"￥1,000～￥1,999","￥1,000～￥1,999",2021年9月1日
17011468,とんかつ専門店 かつ坊,とんかつ,3.53,79,https://tabelog.com/ishikawa/A1702/A170203/17011468/,石川県/野々市市/高橋町/14-43/グリーンハイツⅡ 1F,36.53215128717517,136.6250970451815,水・木・金・土・日/11:30 - 14:30/17:30 - 20:30/月・火/定休日,予約可,"￥2,000～￥2,999","￥1,000～￥1,999",2018年11月1日
17001994,但馬や,焼肉,3.51,21,https://tabelog.com/ishikawa/A1702/A170203/17001994/,石川県/野々市市/粟田/4-150,36.5172458471805,136.61211015504003,月・火・水・金・土・日/17:00 - 22:30/L.O. 22:00/木/定休日,予約可,"￥4,000～￥4,999",-,
17006708,自家製麺 TERRA,ラーメン,3.46,205,https://tabelog.com/ishikawa/A1702/A170203/17006708/,石川県/野々市市/扇ヶ丘9-20/扇ヶ丘ビル1Ｆ横,36.527197936374286,136.62932679396675,火・水・土/11:00 - 14:00/L.O. 料理13:45/17:30 - 20:00/L.O. 料理19:45/日/11:00 - 14:00/L.O. 料理13:45/月・木・金/定休日,予約不可,"￥1,000～￥1,999","￥1,000～￥1,999",2010年6月5日
17011967,ななや,居酒屋、牛料理、揚げ物,3.44,45,https://tabelog.com/ishikawa/A1702/A170203/17011967/,石川県/野々市市/下林/3-287-1,36.52375477717265,136.600410415114,火・水・木・金・土/11:30 - 14:00/L.O. 13:30/17:30 - 23:00/L.O. 22:30/月・日/定休日,予約可,-,"￥1,000～￥1,999",2019年6月6日
17013650,マルガーラボ 野々市店,ジェラート・アイスクリーム、洋菓子,3.43,137,https://tabelog.com/ishikawa/A1702/A170203/17013650/,石川県/野々市市/本町/6-370,36.535032007168546,136.61004424522116,月・火・木・金・土・日/11:00 - 17:00/水/定休日,予約不可,～￥999,-,
17013361,中華そば ブラボー,ラーメン,0.0,81,https://tabelog.com/ishikawa/A1702/A170203/17013361/,石川県/野々市市/稲荷/4-85,36.53681441716512,136.60283111524424,月・火・水・木・金・土/11:00 - 15:00/L.O. 14:30/18:00 - 21:30/L.O. 21:00/日/定休日 ■ 定休日/第1・3月曜日,予約不可,"￥1,000～￥1,999","￥1,000～￥1,999",2022年4月5日
17009973,NiOR,パン,0.0,85,https://tabelog.com/ishikawa/A1702/A170203/17009973/,石川県/野々市市/白山町/392,36.52795829717358,136.6117569051485,月・火・金/10:00 - 19:00/土・日・祝日/09:00 - 19:00/水・木/定休日 ■ 営業時間/※売り切れ次第終了/■ 定休日/不定休,予約不可,-,-,2016年2月
17013675,ramen 雨燕,ラーメン,0.0,67,https://tabelog.com/ishikawa/A1702/A170203/17013675/,石川県/野々市市/高橋町/5-28,36.53235468717481,136.62436722518407,月・火・水・金・土・日/11:00 - 14:30/18:00 - 22:00/木/定休日 ■ 定休日/木曜日、第2・3火曜日,予約不可,"￥1,000～￥1,999","￥1,000～￥1,999",2022年11月1日
17006687,麺どころ 加賀獅子,うどん、そば、かつ丼,3.17,21,https://tabelog.com/ishikawa/A1702/A170203/17006687/,石川県/野々市市/徳用/町343,36.531936566307,136.59323311627867,月・火・木・金・土/11:00 - 15:00/水・日・祝日/定休日,予約不可,-,～￥999,
17011062,神戸クック・ワールドビュッフェ 野々市店,ビュッフェ、レストラン,3.09,25,https://tabelog.com/ishikawa/A1702/A170203/17011062/,石川県/野々市市/徳用/3-254,36.53549251716208,136.59066748523935,月・火・水・木・金/11:00 - 15:30/17:30 - 21:00/土・日・祝日/11:00 - 15:30/17:00 - 21:00 ■ 営業時間/ランチ 最終入店 14：30【土日祝含む】/平日ディナー 最終入店 20：00/土日祝ディナー 最終入店 20：00/※休業・時短営業の場合がございます。/詳細は店舗の公式HPでご確認ください。/■ 定休日/年中無休(年末年始除く),予約可,"￥1,000～￥1,999","￥1,000～￥1,999",2018年3月16日
17010057,つむぎ,パン,3.06,9,https://tabelog.com/ishikawa/A1702/A170203/17010057/,石川県/野々市市/徳用/町89-12,36.53637132734281,136.59080589145273,■ 営業時間/[水・金]/10:00～/■ 定休日/不定休,,-,-,
17012220,旬菜 あっ葉,居酒屋,3.05,5,https://tabelog.com/ishikawa/A1702/A170203/17012220/,石川県/野々市市/徳用/3-1,36.53427933716218,136.5885618252286,火・水・木・金・土・日/17:30 - 23:00/L.O. 22:00/月/定休日 ■ 定休日/第1・3日曜日,予約可,-,-,
17004027,夢,喫茶店,4.52, - ,https://tabelog.com/ishikawa/A1702/A170203/17004027/,石川県/野々市市/徳用/町23-2,36.532183164252935,136.59068168348773,,,-,-,
17000700,すし処 めくみ,寿司,3.68,505,https://tabelog.com/ishikawa/A1702/A170203/17000700/,石川県/野々市市/下林/4-48,36.52157049717454,136.60199876509083,火・水・木・金・土/18:00 - 20:00/20:30 - 22:30/日/12:00 - 14:00/18:00 - 20:00/20:30 - 22:30/月/定休日 ■ 営業時間/[火～土]/18:00～20:30(最終入店)/[日]/12:00(最終入店) /18:00～20:30(最終入店)/■ 定休日/月曜・火曜不定休,完全予約制,"￥40,000～￥49,999","￥40,000～￥49,999",
17013055,ジョニーのビリヤニ,インド料理、インドカレー、パキスタン料理,3.61,217,https://tabelog.com/ishikawa/A1702/A170203/17013055/,石川県/野々市市/白山町/4-1/イオンタウン野々市,36.527384136369236,136.61383179397947,月・火・水・木/11:00 - 15:00/金・土/11:00 - 19:00/日・祝日・祝前日/11:00 - 19:00/L.O. 14:00/祝後日/11:00 - 15:00/L.O. 14:00,予約可,"￥1,000～￥1,999","￥1,000～￥1,999",2021年9月1日
17011468,とんかつ専門店 かつ坊,とんかつ,3.56,79,https://tabelog.com/ishikawa/A1702/A170203/17011468/,石川県/野々市市/高橋町/14-43/グリーンハイツⅡ 1F,36.53215128717517,136.6250970451815,水・木・金・土・日/11:30 - 14:30/17:30 - 20:30/月・火/定休日,予約可,"￥2,000～￥2,999","￥1,000～￥1,999",2018年11月1日
17001994,但馬や,焼肉,3.53,21,https://tabelog.com/ishikawa/A1702/A170203/17001994/,石川県/野々市市/粟田/4-150,36.5172458471805,136.61211015504003,月・火・水・金・土・日/17:00 - 22:30/L.O. 22:00/木/定休日,予約可,"￥4,000～￥4,999",-,
17006708,自家製麺 TERRA,ラーメン,3.53,205,https://tabelog.com/ishikawa/A1702/A170203/17006708/,石川県/野々市市/扇ヶ丘9-20/扇ヶ丘ビル1Ｆ横,36.527197936374286,136.62932679396675,火・水・土/11:00 - 14:00/L.O. 料理13:45/17:30 - 20:00/L.O. 料理19:45/日/11:00 - 14:00/L.O. 料理13:45/月・木・金/定休日,予約不可,"￥1,000～￥1,999","￥1,000～￥1,999",2010年6月5日
17011967,ななや,居酒屋、牛料理、揚げ物,3.51,45,https://tabelog.com/ishikawa/A1702/A170203/17011967/,石川県/野々市市/下林/3-287-1,36.52375477717265,136.600410415114,火・水・木・金・土/11:30 - 14:00/L.O. 13:30/17:30 - 23:00/L.O. 22:30/月・日/定休日,予約可,-,"￥1,000～￥1,999",2019年6月6日
17013650,マルガーラボ 野々市店,ジェラート・アイスクリーム、洋菓子,3.46,137,https://tabelog.com/ishikawa/A1702/A170203/17013650/,石川県/野々市市/本町/6-370,36.535032007168546,136.61004424522116,月・火・木・金・土・日/11:00 - 17:00/水/定休日,予約不可,～￥999,-,
17013361,中華そば ブラボー,ラーメン,3.44,81,https://tabelog.com/ishikawa/A1702/A170203/17013361/,石川県/野々市市/稲荷/4-85,36.53681441716512,136.60283111524424,月・火・水・木・金・土/11:00 - 15:00/L.O. 14:30/18:00 - 21:30/L.O. 21:00/日/定休日 ■ 定休日/第1・3月曜日,予約不可,"￥1,000～￥1,999","￥1,000～￥1,999",2022年4月5日
17009973,NiOR,パン,3.43,85,https://tabelog.com/ishikawa/A1702/A170203/17009973/,石川県/野々市市/白山町/392,36.52795829717358,136.6117569051485,月・火・金/10:00 - 19:00/土・日・祝日/09:00 - 19:00/水・木/定休日 ■ 営業時間/※売り切れ次第終了/■ 定休日/不定休,予約不可,-,-,2016年2月
17013675,ramen 雨燕,ラーメン,0.0,67,https://tabelog.com/ishikawa/A1702/A170203/17013675/,石川県/野々市市/高橋町/5-28,36.53235468717481,136.62436722518407,月・火・水・金・土・日/11:00 - 14:30/18:00 - 22:00/木/定休日 ■ 定休日/木曜日、第2・3火曜日,予約不可,"￥1,000～￥1,999","￥1,000～￥1,999",2022年11月1日
17002677,プティ・ファリーヌ,ケーキ,3.02,7,https://tabelog.com/ishikawa/A1702/A170203/17002677/,石川県/野々市市/藤平田/1-316,36.518251867178556,136.60798154505312,月・火・木・金・土・日/09:00 - 19:00/水/定休日,,-,-,
17000700,すし処 めくみ,寿司,4.52,505,https://tabelog.com/ishikawa/A1702/A170203/17000700/,石川県/野々市市/下林/4-48,36.52157049717454,136.60199876509083,火・水・木・金・土/18:00 - 20:00/20:30 - 22:30/日/12:00 - 14:00/18:00 - 20:00/20:30 - 22:30/月/定休日 ■ 営業時間/[火～土]/18:00～20:30(最終入店)/[日]/12:00(最終入店) /18:00～20:30(最終入店)/■ 定休日/月曜・火曜不定休,完全予約制,"￥40,000～￥49,999","￥40,000～￥49,999",
17013055,ジョニーのビリヤニ,インド料理、インドカレー、パキスタン料理,3.68,217,https://tabelog.com/ishikawa/A1702/A170203/17013055/,石川県/野々市市/白山町/4-1/イオンタウン野々市,36.527384136369236,136.61383179397947,月・火・水・木/11:00 - 15:00/金・土/11:00 - 19:00/日・祝日・祝前日/11:00 - 19:00/L.O. 14:00/祝後日/11:00 - 15:00/L.O. 14:00,予約可,"￥1,000～￥1,999","￥1,000～￥1,999",2021年9月1日
17011468,とんかつ専門店 かつ坊,とんかつ,3.61,79,https://tabelog.com/ishikawa/A1702/A170203/17011468/,石川県/野々市市/高橋町/14-43/グリーンハイツⅡ 1F,36.53215128717517,136.6250970451815,水・木・金・土・日/11:30 - 14:30/17:30 - 20:30/月・火/定休日,予約可,"￥2,000～￥2,999","￥1,000～￥1,999",2018年11月1日
17001994,但馬や,焼肉,3.56,21,https://tabelog.com/ishikawa/A1702/A170203/17001994/,石川県/野々市市/粟田/4-150,36.5172458471805,136.61211015504003,月・火・水・金・土・日/17:00 - 22:30/L.O. 22:00/木/定休日,予約可,"￥4,000～￥4,999",-,
17006708,自家製麺 TERRA,ラーメン,3.53,205,https://tabelog.com/ishikawa/A1702/A170203/17006708/,石川県/野々市市/扇ヶ丘9-20/扇ヶ丘ビル1Ｆ横,36.527197936374286,136.62932679396675,火・水・土/11:00 - 14:00/L.O. 料理13:45/17:30 - 20:00/L.O. 料理19:45/日/11:00 - 14:00/L.O. 料理13:45/月・木・金/定休日,予約不可,"￥1,000～￥1,999","￥1,000～￥1,999",2010年6月5日
17011967,ななや,居酒屋、牛料理、揚げ物,3.53,45,https://tabelog.com/ishikawa/A1702/A170203/17011967/,石川県/野々市市/下林/3-287-1,36.52375477717265,136.600410415114,火・水・木・金・土/11:30 - 14:00/L.O. 13:30/17:30 - 23:00/L.O. 22:30/月・日/定休日,予約可,-,"￥1,000～￥1,999",2019年6月6日
17013650,マルガーラボ 野々市店,ジェラート・アイスクリーム、洋菓子,3.51,137,https://tabelog.com/ishikawa/A1702/A170203/17013650/,石川県/野々市市/本町/6-370,36.535032007168546,136.61004424522116,月・火・木・金・土・日/11:00 - 17:00/水/定休日,予約不可,～￥999,-,
17013361,中華そば ブラボー,ラーメン,3.46,81,https://tabelog.com/ishikawa/A1702/A170203/17013361/,石川県/野々市市/稲荷/4-85,36.53681441716512,136.60283111524424,月・火・水・木・金・土/11:00 - 15:00/L.O. 14:30/18:00 - 21:30/L.O. 21:00/日/定休日 ■ 定休日/第1・3月曜日,予約不可,"￥1,000～￥1,999","￥1,000～￥1,999",2022年4月5日
17009973,NiOR,パン,3.44,85,https://tabelog.com/ishikawa/A1702/A170203/17009973/,石川県/野々市市/白山町/392,36.52795829717358,136.6117569051485,月・火・金/10:00 - 19:00/土・日・祝日/09:00 - 19:00/水・木/定休日 ■ 営業時間/※売り切れ次第終了/■ 定休日/不定休,予約不可,-,-,2016年2月
17013675,ramen 雨燕,ラーメン,3.43,67,https://tabelog.com/ishikawa/A1702/A170203/17013675/,石川県/野々市市/高橋町/5-28,36.53235468717481,136.62436722518407,月・火・水・金・土・日/11:00 - 14:30/18:00 - 22:00/木/定休日 ■ 定休日/木曜日、第2・3火曜日,予約不可,"￥1,000～￥1,999","￥1,000～￥1,999",2022年11月1日
17001260,焼肉牛鉄 ふく家,焼肉,3.16,32,https://tabelog.com/ishikawa/A1702/A170203/17001260/,石川県/野々市市/中林/1-398-2,36.50882172718447,136.60777532495797,月・水・木・金/17:30 - 22:30/L.O. 料理21:30 ドリンク22:00/土・日・祝日/17:00 - 22:30/L.O. 料理21:30 ドリンク22:00/火/定休日,予約可,"￥4,000～￥4,999",-,
17009159,CAFE RUSH,カフェ、バー、ダイニングバー,3.02,6,https://tabelog.com/ishikawa/A1702/A170203/17009159/,石川県/野々市市/中林/5-7,36.512554987181154,136.60481312499778,■ 営業時間/LUNCH 12:00〜13:30(LO.)※平日のみ/DINNER 19:00〜Last/■ 定休日/火曜、土日祝LUNCH Time ※土日祝のLUNCH Timeは予約のみ,予約可,"￥1,000～￥1,999",-,2014年7月12日
17014444,香土食堂,食堂,3.02,1,https://tabelog.com/ishikawa/A1702/A170203/17014444/,石川県/野々市市/中林/3-116,36.50824398718259,136.60070015495714,■ 営業時間/[月]11:00～15:00/水曜日、木曜日は弁当の販売,予約可,-,-,2021年7月31日
17006516,加幸庵,和菓子,3.01,2,https://tabelog.com/ishikawa/A1702/A170203/17006516/,石川県/野々市市/中林/1-165-1,36.50951122718278,136.60380879496773,月・火・水・金・土・日/09:00 - 19:00/木/定休日,,-,-,1830年
17014247,ラ・ムー 野々市南店,コンビニ・スーパー,4.52,3,https://tabelog.com/ishikawa/A1702/A170203/17014247/,石川県/野々市市/中林/2-54-21,36.506357187183696,136.60040954493826,24時間営業,,-,-,
17000700,すし処 めくみ,寿司,3.68,505,https://tabelog.com/ishikawa/A1702/A170203/17000700/,石川県/野々市市/下林/4-48,36.52157049717454,136.60199876509083,火・水・木・金・土/18:00 - 20:00/20:30 - 22:30/日/12:00 - 14:00/18:00 - 20:00/20:30 - 22:30/月/定休日 ■ 営業時間/[火～土]/18:00～20:30(最終入店)/[日]/12:00(最終入店) /18:00～20:30(最終入店)/■ 定休日/月曜・火曜不定休,完全予約制,"￥40,000～￥49,999","￥40,000～￥49,999",
17013055,ジョニーのビリヤニ,インド料理、インドカレー、パキスタン料理,3.61,217,https://tabelog.com/ishikawa/A1702/A170203/17013055/,石川県/野々市市/白山町/4-1/イオンタウン野々市,36.527384136369236,136.61383179397947,月・火・水・木/11:00 - 15:00/金・土/11:00 - 19:00/日・祝日・祝前日/11:00 - 19:00/L.O. 14:00/祝後日/11:00 - 15:00/L.O. 14:00,予約可,"￥1,000～￥1,999","￥1,000～￥1,999",2021年9月1日
17011468,とんかつ専門店 かつ坊,とんかつ,3.56,79,https://tabelog.com/ishikawa/A1702/A170203/17011468/,石川県/野々市市/高橋町/14-43/グリーンハイツⅡ 1F,36.53215128717517,136.6250970451815,水・木・金・土・日/11:30 - 14:30/17:30 - 20:30/月・火/定休日,予約可,"￥2,000～￥2,999","￥1,000～￥1,999",2018年11月1日
17001994,但馬や,焼肉,3.53,21,https://tabelog.com/ishikawa/A1702/A170203/17001994/,石川県/野々市市/粟田/4-150,36.5172458471805,136.61211015504003,月・火・水・金・土・日/17:00 - 22:30/L.O. 22:00/木/定休日,予約可,"￥4,000～￥4,999",-,
17006708,自家製麺 TERRA,ラーメン,3.53,205,https://tabelog.com/ishikawa/A1702/A170203/17006708/,石川県/野々市市/扇ヶ丘9-20/扇ヶ丘ビル1Ｆ横,36.527197936374286,136.62932679396675,火・水・土/11:00 - 14:00/L.O. 料理13:45/17:30 - 20:00/L.O. 料理19:45/日/11:00 - 14:00/L.O. 料理13:45/月・木・金/定休日,予約不可,"￥1,000～￥1,999","￥1,000～￥1,999",2010年6月5日
17011967,ななや,居酒屋、牛料理、揚げ物,3.51,45,https://tabelog.com/ishikawa/A1702/A170203/17011967/,石川県/野々市市/下林/3-287-1,36.52375477717265,136.600410415114,火・水・木・金・土/11:30 - 14:00/L.O. 13:30/17:30 - 23:00/L.O. 22:30/月・日/定休日,予約可,-,"￥1,000～￥1,999",2019年6月6日
17013650,マルガーラボ 野々市店,ジェラート・アイスクリーム、洋菓子,3.46,137,https://tabelog.com/ishikawa/A1702/A170203/17013650/,石川県/野々市市/本町/6-370,36.535032007168546,136.61004424522116,月・火・木・金・土・日/11:00 - 17:00/水/定休日,予約不可,～￥999,-,
17013361,中華そば ブラボー,ラーメン,3.44,81,https://tabelog.com/ishikawa/A1702/A170203/17013361/,石川県/野々市市/稲荷/4-85,36.53681441716512,136.60283111524424,月・火・水・木・金・土/11:00 - 15:00/L.O. 14:30/18:00 - 21:30/L.O. 21:00/日/定休日 ■ 定休日/第1・3月曜日,予約不可,"￥1,000～￥1,999","￥1,000～￥1,999",2022年4月5日
17009973,NiOR,パン,3.43,85,https://tabelog.com/ishikawa/A1702/A170203/17009973/,石川県/野々市市/白山町/392,36.52795829717358,136.6117569051485,月・火・金/10:00 - 19:00/土・日・祝日/09:00 - 19:00/水・木/定休日 ■ 営業時間/※売り切れ次第終了/■ 定休日/不定休,予約不可,-,-,2016年2月
17013675,ramen 雨燕,ラーメン,0.0,67,https://tabelog.com/ishikawa/A1702/A170203/17013675/,石川県/野々市市/高橋町/5-28,36.53235468717481,136.62436722518407,月・火・水・金・土・日/11:00 - 14:30/18:00 - 22:00/木/定休日 ■ 定休日/木曜日、第2・3火曜日,予約不可,"￥1,000～￥1,999","￥1,000～￥1,999",2022年11月1日
17001124,牛鉄,焼肉,3.34,41,https://tabelog.com/ishikawa/A1702/A170203/17001124/,石川県/野々市市/野代/1丁目65,36.53898100716392,136.60336805526572,月・水・木・金・土・日・祝日・祝前日・祝後日/17:00 - 23:00/L.O. 料理22:00 ドリンク22:15/火/定休日 ■ 定休日/火曜、第四水曜日,予約可,"￥4,000～￥4,999",-,
17005916,たこ沢,たこ焼き,4.52, - ,https://tabelog.com/ishikawa/A1702/A170203/17005916/,石川県/野々市市/野代/2-11/100満ボルト金沢本店敷地内,36.539686731745554,136.6024542158582,■ 営業時間/11:00～/土曜のみの営業になります。,,-,-,
17000700,すし処 めくみ,寿司,3.68,505,https://tabelog.com/ishikawa/A1702/A170203/17000700/,石川県/野々市市/下林/4-48,36.52157049717454,136.60199876509083,火・水・木・金・土/18:00 - 20:00/20:30 - 22:30/日/12:00 - 14:00/18:00 - 20:00/20:30 - 22:30/月/定休日 ■ 営業時間/[火～土]/18:00～20:30(最終入店)/[日]/12:00(最終入店) /18:00～20:30(最終入店)/■ 定休日/月曜・火曜不定休,完全予約制,"￥40,000～￥49,999","￥40,000～￥49,999",
17013055,ジョニーのビリヤニ,インド料理、インドカレー、パキスタン料理,3.61,217,https://tabelog.com/ishikawa/A1702/A170203/17013055/,石川県/野々市市/白山町/4-1/イオンタウン野々市,36.527384136369236,136.61383179397947,月・火・水・木/11:00 - 15:00/金・土/11:00 - 19:00/日・祝日・祝前日/11:00 - 19:00/L.O. 14:00/祝後日/11:00 - 15:00/L.O. 14:00,予約可,"￥1,000～￥1,999","￥1,000～￥1,999",2021年9月1日
17011468,とんかつ専門店 かつ坊,とんかつ,3.56,79,https://tabelog.com/ishikawa/A1702/A170203/17011468/,石川県/野々市市/高橋町/14-43/グリーンハイツⅡ 1F,36.53215128717517,136.6250970451815,水・木・金・土・日/11:30 - 14:30/17:30 - 20:30/月・火/定休日,予約可,"￥2,000～￥2,999","￥1,000～￥1,999",2018年11月1日
17001994,但馬や,焼肉,3.53,21,https://tabelog.com/ishikawa/A1702/A170203/17001994/,石川県/野々市市/粟田/4-150,36.5172458471805,136.61211015504003,月・火・水・金・土・日/17:00 - 22:30/L.O. 22:00/木/定休日,予約可,"￥4,000～￥4,999",-,
17006708,自家製麺 TERRA,ラーメン,3.53,205,https://tabelog.com/ishikawa/A1702/A170203/17006708/,石川県/野々市市/扇ヶ丘9-20/扇ヶ丘ビル1Ｆ横,36.527197936374286,136.62932679396675,火・水・土/11:00 - 14:00/L.O. 料理13:45/17:30 - 20:00/L.O. 料理19:45/日/11:00 - 14:00/L.O. 料理13:45/月・木・金/定休日,予約不可,"￥1,000～￥1,999","￥1,000～￥1,999",2010年6月5日
17011967,ななや,居酒屋、牛料理、揚げ物,3.51,45,https://tabelog.com/ishikawa/A1702/A170203/17011967/,石川県/野々市市/下林/3-287-1,36.52375477717265,136.600410415114,火・水・木・金・土/11:30 - 14:00/L.O. 13:30/17:30 - 23:00/L.O. 22:30/月・日/定休日,予約可,-,"￥1,000～￥1,999",2019年6月6日
17013650,マルガーラボ 野々市店,ジェラート・アイスクリーム、洋菓子,3.46,137,https://tabelog.com/ishikawa/A1702/A170203/17013650/,石川県/野々市市/本町/6-370,36.535032007168546,136.61004424522116,月・火・木・金・土・日/11:00 - 17:00/水/定休日,予約不可,～￥999,-,
17013361,中華そば ブラボー,ラーメン,3.44,81,https://tabelog.com/ishikawa/A1702/A170203/17013361/,石川県/野々市市/稲荷/4-85,36.53681441716512,136.60283111524424,月・火・水・木・金・土/11:00 - 15:00/L.O. 14:30/18:00 - 21:30/L.O. 21:00/日/定休日 ■ 定休日/第1・3月曜日,予約不可,"￥1,000～￥1,999","￥1,000～￥1,999",2022年4月5日
17009973,NiOR,パン,3.43,85,https://tabelog.com/ishikawa/A1702/A170203/17009973/,石川県/野々市市/白山町/392,36.52795829717358,136.6117569051485,月・火・金/10:00 - 19:00/土・日・祝日/09:00 - 19:00/水・木/定休日 ■ 営業時間/※売り切れ次第終了/■ 定休日/不定休,予約不可,-,-,2016年2月
17013675,ramen 雨燕,ラーメン,0.0,67,https://tabelog.com/ishikawa/A1702/A170203/17013675/,石川県/野々市市/高橋町/5-28,36.53235468717481,136.62436722518407,月・火・水・金・土・日/11:00 - 14:30/18:00 - 22:00/木/定休日 ■ 定休日/木曜日、第2・3火曜日,予約不可,"￥1,000～￥1,999","￥1,000～￥1,999",2022年11月1日
17013055,ジョニーのビリヤニ,インド料理、インドカレー、パキスタン料理,3.68,217,https://tabelog.com/ishikawa/A1702/A170203/17013055/,石川県/野々市市/白山町/4-1/イオンタウン野々市,36.527384136369236,136.61383179397947,月・火・水・木/11:00 - 15:00/金・土/11:00 - 19:00/日・祝日・祝前日/11:00 - 19:00/L.O. 14:00/祝後日/11:00 - 15:00/L.O. 14:00,予約可,"￥1,000～￥1,999","￥1,000～￥1,999",2021年9月1日
17009973,NiOR,パン,3.44,85,https://tabelog.com/ishikawa/A1702/A170203/17009973/,石川県/野々市市/白山町/392,36.52795829717358,136.6117569051485,月・火・金/10:00 - 19:00/土・日・祝日/09:00 - 19:00/水・木/定休日 ■ 営業時間/※売り切れ次第終了/■ 定休日/不定休,予約不可,-,-,2016年2月
17002170,もみじ屋,日本料理,3.14,20,https://tabelog.com/ishikawa/A1702/A170203/17002170/,石川県/野々市市/白山町/10-23,36.52810308717312,136.61057542515078,月・火・木・金・土/11:30 - 14:30/L.O. 料理14:00/18:00 - 22:00/L.O. 料理21:00/日・祝日/17:30 - 22:00/L.O. 料理21:00/水/定休日 定休日／水曜日、第３または第４火曜日水曜日連休,予約可,"￥5,000～￥5,999","￥1,000～￥1,999",
17007915,こいこい,居酒屋,3.11,12,https://tabelog.com/ishikawa/A1701/A170101/17007915/,石川県/野々市市/白山町/10-23/木野ビル 1F,36.527978417173195,136.61056807514956,18:00 - 00:00 ■ 定休日/(月),予約可,"￥5,000～￥5,999",-,
17014136,野々市ミート,その他,3.02,3,https://tabelog.com/ishikawa/A1702/A170203/17014136/,石川県/野々市市/白山町/1-33,36.52787518717433,136.61393817514613,月・火・木・金・土・日/10:00 - 19:00/水/定休日,予約可,-,-,
17009289,不二家 マックスバリュ野々市店,ケーキ,3.01,4,https://tabelog.com/ishikawa/A1702/A170203/17009289/,石川県/野々市市/白山町/4-1/マックスバリュ野々市店,36.52709203717439,136.6125234951393,24時間営業,,-,-,2014年11月13日
17011920,パン工場 マックスバリュ野々市店,パン,3.01,4,https://tabelog.com/ishikawa/A1702/A170203/17011920/,石川県/野々市市/白山町/4-1/マックスバリュ野々市店内,36.52639943450836,136.61221151728623,,,-,-,
17014532,ボヘミアン,喫茶店,4.52,1,https://tabelog.com/ishikawa/A1701/A170101/17014532/,石川県/野々市市/白山町/10-23/1F,36.52816332717309,136.61058972515139,,,-,-,
17007950,アンバー ジェイド,カフェ,3.61, - ,https://tabelog.com/ishikawa/A1702/A170203/17007950/,石川県/野々市市/白山町/13-6/カメリア木野 1F,36.52757463636811,136.61064889398364,月・火・水・金・土・日/10:00 - 16:00/木/定休日 ■ 定休日/第２、第４金曜,予約可,-,～￥999,2012年10月7日
17000700,すし処 めくみ,寿司,3.56,505,https://tabelog.com/ishikawa/A1702/A170203/17000700/,石川県/野々市市/下林/4-48,36.52157049717454,136.60199876509083,火・水・木・金・土/18:00 - 20:00/20:30 - 22:30/日/12:00 - 14:00/18:00 - 20:00/20:30 - 22:30/月/定休日 ■ 営業時間/[火～土]/18:00～20:30(最終入店)/[日]/12:00(最終入店) /18:00～20:30(最終入店)/■ 定休日/月曜・火曜不定休,完全予約制,"￥40,000～￥49,999","￥40,000～￥49,999",
17011468,とんかつ専門店 かつ坊,とんかつ,3.53,79,https://tabelog.com/ishikawa/A1702/A170203/17011468/,石川県/野々市市/高橋町/14-43/グリーンハイツⅡ 1F,36.53215128717517,136.6250970451815,水・木・金・土・日/11:30 - 14:30/17:30 - 20:30/月・火/定休日,予約可,"￥2,000～￥2,999","￥1,000～￥1,999",2018年11月1日
17001994,但馬や,焼肉,3.53,21,https://tabelog.com/ishikawa/A1702/A170203/17001994/,石川県/野々市市/粟田/4-150,36.5172458471805,136.61211015504003,月・火・水・金・土・日/17:00 - 22:30/L.O. 22:00/木/定休日,予約可,"￥4,000～￥4,999",-,
17006708,自家製麺 TERRA,ラーメン,3.51,205,https://tabelog.com/ishikawa/A1702/A170203/17006708/,石川県/野々市市/扇ヶ丘9-20/扇ヶ丘ビル1Ｆ横,36.527197936374286,136.62932679396675,火・水・土/11:00 - 14:00/L.O. 料理13:45/17:30 - 20:00/L.O. 料理19:45/日/11:00 - 14:00/L.O. 料理13:45/月・木・金/定休日,予約不可,"￥1,000～￥1,999","￥1,000～￥1,999",2010年6月5日
17011967,ななや,居酒屋、牛料理、揚げ物,3.46,45,https://tabelog.com/ishikawa/A1702/A170203/17011967/,石川県/野々市市/下林/3-287-1,36.52375477717265,136.600410415114,火・水・木・金・土/11:30 - 14:00/L.O. 13:30/17:30 - 23:00/L.O. 22:30/月・日/定休日,予約可,-,"￥1,000～￥1,999",2019年6月6日
17013650,マルガーラボ 野々市店,ジェラート・アイスクリーム、洋菓子,3.43,137,https://tabelog.com/ishikawa/A1702/A170203/17013650/,石川県/野々市市/本町/6-370,36.535032007168546,136.61004424522116,月・火・木・金・土・日/11:00 - 17:00/水/定休日,予約不可,～￥999,-,
17013361,中華そば ブラボー,ラーメン,0.0,81,https://tabelog.com/ishikawa/A1702/A170203/17013361/,石川県/野々市市/稲荷/4-85,36.53681441716512,136.60283111524424,月・火・水・木・金・土/11:00 - 15:00/L.O. 14:30/18:00 - 21:30/L.O. 21:00/日/定休日 ■ 定休日/第1・3月曜日,予約不可,"￥1,000～￥1,999","￥1,000～￥1,999",2022年4月5日
17013675,ramen 雨燕,ラーメン,0.0,67,https://tabelog.com/ishikawa/A1702/A170203/17013675/,石川県/野々市市/高橋町/5-28,36.53235468717481,136.62436722518407,月・火・水・金・土・日/11:00 - 14:30/18:00 - 22:00/木/定休日 ■ 定休日/木曜日、第2・3火曜日,予約不可,"￥1,000～￥1,999","￥1,000～￥1,999",2022年11月1日
17015520,おばんざい 岬,喫茶店、食堂,3.04,2,https://tabelog.com/ishikawa/A1702/A170203/17015520/,石川県/野々市市/藤平/144-5,36.51358933718047,136.6046979950083,火・水・木・金・土・日/11:00 - 13:30/17:00 - 22:00/月/定休日 第2火曜定休日,,-,-,2025年10月11日
17010449,おかん,居酒屋,3.01,3,https://tabelog.com/ishikawa/A1702/A170203/17010449/,石川県/野々市市/藤平/144-5,36.513601783436975,136.60471022949463,月・火・水・金・土・日/17:00 - 22:00/木/定休日,,-,-,
17014992,酒、愉しみ処 一二,居酒屋,3.0,1,https://tabelog.com/ishikawa/A1702/A170203/17014992/,石川県/野々市市/藤平/144-5,36.51359800718046,136.60470600500838,月・火・木・金・土・日/16:30 - 22:00/水/定休日,,-,-,2024年5月15日
17002860,カイゼル,喫茶店,4.52, - ,https://tabelog.com/ishikawa/A1702/A170203/17002860/,石川県/野々市市/藤平/80-1,36.51309836718091,136.60510427500304,,,-,-,
17000700,すし処 めくみ,寿司,3.68,505,https://tabelog.com/ishikawa/A1702/A170203/17000700/,石川県/野々市市/下林/4-48,36.52157049717454,136.60199876509083,火・水・木・金・土/18:00 - 20:00/20:30 - 22:30/日/12:00 - 14:00/18:00 - 20:00/20:30 - 22:30/月/定休日 ■ 営業時間/[火～土]/18:00～20:30(最終入店)/[日]/12:00(最終入店) /18:00～20:30(最終入店)/■ 定休日/月曜・火曜不定休,完全予約制,"￥40,000～￥49,999","￥40,000～￥49,999",
17013055,ジョニーのビリヤニ,インド料理、インドカレー、パキスタン料理,3.61,217,https://tabelog.com/ishikawa/A1702/A170203/17013055/,石川県/野々市市/白山町/4-1/イオンタウン野々市,36.527384136369236,136.61383179397947,月・火・水・木/11:00 - 15:00/金・土/11:00 - 19:00/日・祝日・祝前日/11:00 - 19:00/L.O. 14:00/祝後日/11:00 - 15:00/L.O. 14:00,予約可,"￥1,000～￥1,999","￥1,000～￥1,999",2021年9月1日
17011468,とんかつ専門店 かつ坊,とんかつ,3.56,79,https://tabelog.com/ishikawa/A1702/A170203/17011468/,石川県/野々市市/高橋町/14-43/グリーンハイツⅡ 1F,36.53215128717517,136.6250970451815,水・木・金・土・日/11:30 - 14:30/17:30 - 20:30/月・火/定休日,予約可,"￥2,000～￥2,999","￥1,000～￥1,999",2018年11月1日
17001994,但馬や,焼肉,3.53,21,https://tabelog.com/ishikawa/A1702/A170203/17001994/,石川県/野々市市/粟田/4-150,36.5172458471805,136.61211015504003,月・火・水・金・土・日/17:00 - 22:30/L.O. 22:00/木/定休日,予約可,"￥4,000～￥4,999",-,
17006708,自家製麺 TERRA,ラーメン,3.53,205,https://tabelog.com/ishikawa/A1702/A170203/17006708/,石川県/野々市市/扇ヶ丘9-20/扇ヶ丘ビル1Ｆ横,36.527197936374286,136.62932679396675,火・水・土/11:00 - 14:00/L.O. 料理13:45/17:30 - 20:00/L.O. 料理19:45/日/11:00 - 14:00/L.O. 料理13:45/月・木・金/定休日,予約不可,"￥1,000～￥1,999","￥1,000～￥1,999",2010年6月5日
17011967,ななや,居酒屋、牛料理、揚げ物,3.51,45,https://tabelog.com/ishikawa/A1702/A170203/17011967/,石川県/野々市市/下林/3-287-1,36.52375477717265,136.600410415114,火・水・木・金・土/11:30 - 14:00/L.O. 13:30/17:30 - 23:00/L.O. 22:30/月・日/定休日,予約可,-,"￥1,000～￥1,999",2019年6月6日
17013650,マルガーラボ 野々市店,ジェラート・アイスクリーム、洋菓子,3.46,137,https://tabelog.com/ishikawa/A1702/A170203/17013650/,石川県/野々市市/本町/6-370,36.535032007168546,136.61004424522116,月・火・木・金・土・日/11:00 - 17:00/水/定休日,予約不可,～￥999,-,
17013361,中華そば ブラボー,ラーメン,3.44,81,https://tabelog.com/ishikawa/A1702/A170203/17013361/,石川県/野々市市/稲荷/4-85,36.53681441716512,136.60283111524424,月・火・水・木・金・土/11:00 - 15:00/L.O. 14:30/18:00 - 21:30/L.O. 21:00/日/定休日 ■ 定休日/第1・3月曜日,予約不可,"￥1,000～￥1,999","￥1,000～￥1,999",2022年4月5日
17009973,NiOR,パン,3.43,85,https://tabelog.com/ishikawa/A1702/A170203/17009973/,石川県/野々市市/白山町/392,36.52795829717358,136.6117569051485,月・火・金/10:00 - 19:00/土・日・祝日/09:00 - 19:00/水・木/定休日 ■ 営業時間/※売り切れ次第終了/■ 定休日/不定休,予約不可,-,-,2016年2月
17013675,ramen 雨燕,ラーメン,0.0,67,https://tabelog.com/ishikawa/A1702/A170203/17013675/,石川県/野々市市/高橋町/5-28,36.53235468717481,136.62436722518407,月・火・水・金・土・日/11:00 - 14:30/18:00 - 22:00/木/定休日 ■ 定休日/木曜日、第2・3火曜日,予約不可,"￥1,000～￥1,999","￥1,000～￥1,999",2022年11月1日
17006720,Yahataすしべん .野々市店,うどん、そば、かつ丼,3.21,35,https://tabelog.com/ishikawa/A1702/A170203/17006720/,石川県/野々市市/二日市町/538-1,36.54010197716245,136.6010257152787,24時間営業,予約不可,～￥999,～￥999,
17000177,しちりん家 野々市店,焼肉,3.14,22,https://tabelog.com/ishikawa/A1701/A170101/17000177/,石川県/野々市市/二日市町/510-2,36.54020497178996,136.6002868719947,月・火・木・金/17:00 - 00:00/L.O. 23:30/土・日・祝日/16:30 - 00:00/L.O. 23:30/水/定休日 ■ 営業時間/定休日が祝日の場合は営業、翌日休み/■ 定休日/水曜日 (定休日が祝日の場合は営業、翌日休み),予約可,"￥4,000～￥4,999",-,
17009770,麺屋 達 二日市店,ラーメン、つけ麺,3.06,39,https://tabelog.com/ishikawa/A1702/A170203/17009770/,石川県/野々市市/二日市町/510-2,36.54016219705917,136.60019938123023,11:30 - 14:30/18:00 - 00:00,予約不可,"￥1,000～￥1,999",～￥999,2015年8月27日
17004386,ポピー,喫茶店,4.52, - ,https://tabelog.com/ishikawa/A1702/A170203/17004386/,石川県/野々市市/二日市町/3-1,36.541017647160984,136.5982247652899,,,-,-,
